id,name,description,category,address,suburb,state,postcode,latitude,longitude,phone,email,website,hours,eligibility,cost,source_id,source_name,source_organisation,source_jurisdiction,source_license,source_url,source_date,quality
fed_emergency_relief_0000,139 Club Inc,Emergency relief provider operated by 139 Club Limited,financial,"Lot 5, 505 Brunswick Street FORTITUDE VALLEY QLD 4006",Fortitude Valley,QLD,4006,-27.4614198,153.0381955,,,http://www.139club.com.au,,,Free,fed_emergency_relief,Emergency Relief Provider Outlets,Department of Social Services,federal,CC-BY-3.0-AU,https://data.gov.au/data/dataset/d667403f-2016-463f-bb0a-3087ae67c57f,2026-04-19,complete
fed_emergency_relief_0001,AFSS Coober Pedy,Emergency relief provider operated by Aboriginal Family Support Services Inc,financial,Lot 223 Aylett Street COOBER PEDY SA 5723,Coober Pedy,SA,5723,-29.0092512,134.7570196,,,http://www.afss.com.au,,,Free,fed_emergency_relief,Emergency Relief Provider Outlets,Department of Social Services,federal,CC-BY-3.0-AU,https://data.gov.au/data/dataset/d667403f-2016-463f-bb0a-3087ae67c57f,2026-04-19,complete
fed_emergency_relief_0002,Acacia Ridge Community Centre,Emergency relief provider operated by Acacia Ridge Community Support Incorporated,financial,21 Hanify St ACACIA RIDGE QLD 4110,Acacia Ridge,QLD,4110,-27.5794776,153.0197921,,,http://www.arcsi.org.au,,,Free,fed_emergency_relief,Emergency Relief Provider Outlets,Department of Social Services,federal,CC-BY-3.0-AU,https://data.gov.au/data/dataset/d667403f-2016-463f-bb0a-3087ae67c57f,2026-04-19,complete
fed_emergency_relief_0003,ADRA Emergency Relief Ferntree Gully,Emergency relief provider operated by ADRA Adventist Development and Relief Agency,financial,3 Railway Avenue UPPER FERNTREE GULLY VIC 3156,Upper Ferntree Gully,VIC,3156,-37.8916598,145.307473,,,http://www.adra.org.au,,,Free,fed_emergency_relief,Emergency Relief Provider Outlets,Department of Social Services,federal,CC-BY-3.0-AU,https://data.gov.au/data/dataset/d667403f-2016-463f-bb0a-3087ae67c57f,2026-04-19,complete
fed_emergency_relief_0004,ADRA Emergency Relief Eight Mile Plains,Emergency relief provider operated by ADRA Adventist Development and Relief Agency,financial,"Lot 1, 15 London Street EIGHT MILE PLAINS QLD 4113",Eight Mile Plains,QLD,4113,-27.5737169,153.0918177,,,http://www.adra.org.au,,,Free,fed_emergency_relief,Emergency Relief Provider Outlets,Department of Social Services,federal,CC-BY-3.0-AU,https://data.gov.au/data/dataset/d667403f-2016-463f-bb0a-3087ae67c57f,2026-04-19,complete
fed_emergency_relief_0005,ADRA Community Centre Logan Central,Emergency relief provider operated by ADRA Adventist Development and Relief Agency,financial,"Lot 41, 31 Station Road LOGAN CENTRAL QLD 4114",Logan Central,QLD,4114,-27.6380271,153.1049903,,,http://www.adra.org.au,,,Free,fed_emergency_relief,Emergency Relief Provider Outlets,Department of Social Services,federal,CC-BY-3.0-AU,https://data.gov.au/data/dataset/d667403f-2016-463f-bb0a-3087ae67c57f,2026-04-19,complete
fed_emergency_relief_0006,ADRA Emergency Relief Adelaide City,Emergency relief provider operated by ADRA Adventist Development and Relief Agency,financial,82 Angas St Adelaide SA 5000,Adelaide,SA,5000,-34.9295035,138.6038768,,,http://www.adra.org.au,,,Free,fed_emergency_relief,Emergency Relief Provider Outlets,Department of Social Services,federal,CC-BY-3.0-AU,https://data.gov.au/data/dataset/d667403f-2016-463f-bb0a-3087ae67c57f,2026-04-19,complete
fed_emergency_relief_0007,ADRA Emergency Relief Melrose Park,Emergency relief provider operated by ADRA Adventist Development and Relief Agency,financial,123 Edward st Melrose Park SA 5039,Melrose Park,SA,5039,-34.9781648,138.5794351,,,http://www.adra.org.au,,,Free,fed_emergency_relief,Emergency Relief Provider Outlets,Department of Social Services,federal,CC-BY-3.0-AU,https://data.gov.au/data/dataset/d667403f-2016-463f-bb0a-3087ae67c57f,2026-04-19,complete
fed_emergency_relief_0008,ADRA Community Centre Parafield,Emergency relief provider operated by ADRA Adventist Development and Relief Agency,financial,1A-2D Lawrence Hargrave Way PARAFIELD SA 5106,Parafield,SA,5106,-34.7920149,138.6433678,,,http://www.adra.org.au,,,Free,fed_emergency_relief,Emergency Relief Provider Outlets,Department of Social Services,federal,CC-BY-3.0-AU,https://data.gov.au/data/dataset/d667403f-2016-463f-bb0a-3087ae67c57f,2026-04-19,complete
fed_emergency_relief_0009,ADRA Emergency Relief Morphett Vale,Emergency relief provider operated by ADRA Adventist Development and Relief Agency,financial,130 Pimpala Rd Morphett Vale SA 5162,Morphett Vale,SA,5162,-35.1048463,138.5428462,,,http://www.adra.org.au,,,Free,fed_emergency_relief,Emergency Relief Provider Outlets,Department of Social Services,federal,CC-BY-3.0-AU,https://data.gov.au/data/dataset/d667403f-2016-463f-bb0a-3087ae67c57f,2026-04-19,complete
fed_emergency_relief_0010,ADRA Emergency Relief Mount Barker,Emergency relief provider operated by ADRA Adventist Development and Relief Agency,financial,8 Shoebridge Lane MOUNT BARKER SA 5251,Mount Barker,SA,5251,-35.0671546,138.8595676,,,http://www.adra.org.au,,,Free,fed_emergency_relief,Emergency Relief Provider Outlets,Department of Social Services,federal,CC-BY-3.0-AU,https://data.gov.au/data/dataset/d667403f-2016-463f-bb0a-3087ae67c57f,2026-04-19,complete
fed_emergency_relief_0011,ADRA Emergency Relief Naracoorte,Emergency relief provider operated by ADRA Adventist Development and Relief Agency,financial,205 Hynam Caves Road MOUNT LIGHT SA 5271,Mount Light,SA,5271,-37.0015174,140.8265458,,,http://www.adra.org.au,,,Free,fed_emergency_relief,Emergency Relief Provider Outlets,Department of Social Services,federal,CC-BY-3.0-AU,https://data.gov.au/data/dataset/d667403f-2016-463f-bb0a-3087ae67c57f,2026-04-19,complete
fed_emergency_relief_0012,ADRA Emergency Relief Millicent,Emergency relief provider operated by ADRA Adventist Development and Relief Agency,financial,15 Williams Rd Millicent SA 5280,Millicent,SA,5280,-37.603471,140.3580167,,,http://www.adra.org.au,,,Free,fed_emergency_relief,Emergency Relief Provider Outlets,Department of Social Services,federal,CC-BY-3.0-AU,https://data.gov.au/data/dataset/d667403f-2016-463f-bb0a-3087ae67c57f,2026-04-19,complete
fed_emergency_relief_0013,ADRA Emergency Relief Mt Gambier,Emergency relief provider operated by ADRA Adventist Development and Relief Agency,financial,63 Suttontown Road MOUNT GAMBIER SA 5290,Mount Gambier,SA,5290,-37.8108476,140.7678017,,,http://www.adra.org.au,,,Free,fed_emergency_relief,Emergency Relief Provider Outlets,Department of Social Services,federal,CC-BY-3.0-AU,https://data.gov.au/data/dataset/d667403f-2016-463f-bb0a-3087ae67c57f,2026-04-19,complete
fed_emergency_relief_0014,ADRA Emergency Relief Mandurah,Emergency relief provider operated by ADRA Adventist Development and Relief Agency,financial,116 Anstruther Rd MANDURAH WA 6210,Mandurah,WA,6210,-32.5210827,115.7315999,,,http://www.adra.org.au,,,Free,fed_emergency_relief,Emergency Relief Provider Outlets,Department of Social Services,federal,CC-BY-3.0-AU,https://data.gov.au/data/dataset/d667403f-2016-463f-bb0a-3087ae67c57f,2026-04-19,complete
fed_emergency_relief_0015,Withheld,Emergency relief provider operated by Agencies for South West Accommodation Inc,financial,Withheld,Withheld,,Withheld,-33.214011,115.925207,,,http://www.accordwest.com.au,,,Free,fed_emergency_relief,Emergency Relief Provider Outlets,Department of Social Services,federal,CC-BY-3.0-AU,https://data.gov.au/data/dataset/d667403f-2016-463f-bb0a-3087ae67c57f,2026-04-19,complete
fed_emergency_relief_0016,Withheld,Emergency relief provider operated by Agencies for South West Accommodation Inc,financial,Withheld,Withheld,,Withheld,-33.214011,115.925207,,,http://www.accordwest.com.au,,,Free,fed_emergency_relief,Emergency Relief Provider Outlets,Department of Social Services,federal,CC-BY-3.0-AU,https://data.gov.au/data/dataset/d667403f-2016-463f-bb0a-3087ae67c57f,2026-04-19,complete
fed_emergency_relief_0017,Withheld,Emergency relief provider operated by Agencies for South West Accommodation Inc,financial,Withheld,Withheld,,Withheld,-33.214011,115.925207,,,http://www.accordwest.com.au,,,Free,fed_emergency_relief,Emergency Relief Provider Outlets,Department of Social Services,federal,CC-BY-3.0-AU,https://data.gov.au/data/dataset/d667403f-2016-463f-bb0a-3087ae67c57f,2026-04-19,complete
fed_emergency_relief_0018,Withheld,Emergency relief provider operated by Agencies for South West Accommodation Inc,financial,Withheld,Withheld,,Withheld,-33.953279,115.370794,,,http://www.accordwest.com.au,,,Free,fed_emergency_relief,Emergency Relief Provider Outlets,Department of Social Services,federal,CC-BY-3.0-AU,https://data.gov.au/data/dataset/d667403f-2016-463f-bb0a-3087ae67c57f,2026-04-19,complete
fed_emergency_relief_0019,Withheld,Emergency relief provider operated by Alice Springs Women's Shelter,financial,Withheld,Withheld,,Withheld,-21.972362,133.499769,,,http://asws.org.au/,,,Free,fed_emergency_relief,Emergency Relief Provider Outlets,Department of Social Services,federal,CC-BY-3.0-AU,https://data.gov.au/data/dataset/d667403f-2016-463f-bb0a-3087ae67c57f,2026-04-19,complete
fed_emergency_relief_0020,ASYASS Inc,Emergency relief provider operated by Alice Springs Youth Accommodation & Support Services,financial,12 Undoolya Road PO Box 9094 Alice Springs NT 0870,Alice Springs,NT,0870,-23.6974741,133.8888369,,,http://www.asyass.org.au,,,Free,fed_emergency_relief,Emergency Relief Provider Outlets,Department of Social Services,federal,CC-BY-3.0-AU,https://data.gov.au/data/dataset/d667403f-2016-463f-bb0a-3087ae67c57f,2026-04-19,complete
fed_emergency_relief_0021,ASCC Nowra,Emergency relief provider operated by All Saints Community Care Incorporated,financial,74 Osborne St NOWRA NSW 2541,Nowra,NSW,2541,-34.8767362,150.5980625,,,http://allsaintsnowra.org.au/ministries/community-care,,,Free,fed_emergency_relief,Emergency Relief Provider Outlets,Department of Social Services,federal,CC-BY-3.0-AU,https://data.gov.au/data/dataset/d667403f-2016-463f-bb0a-3087ae67c57f,2026-04-19,complete
fed_emergency_relief_0022,Rockhampton Emergency Relief,Emergency relief provider operated by Anglicare Central Queensland,financial,Shop 2 212 Quay St ROCKHAMPTON CITY QLD 4700,Rockhampton City,QLD,4700,-23.3785618,150.5148083,,,http://www.anglicarecq.org.au,,,Free,fed_emergency_relief,Emergency Relief Provider Outlets,Department of Social Services,federal,CC-BY-3.0-AU,https://data.gov.au/data/dataset/d667403f-2016-463f-bb0a-3087ae67c57f,2026-04-19,complete
fed_emergency_relief_0023,Biloela Emergency Relief,Emergency relief provider operated by Anglicare Central Queensland,financial,"Lot 108, 79 Kariboe Street BILOELA QLD 4715",Biloela,QLD,4715,-24.4000722,150.5110598,,,http://www.anglicarecq.org.au,,,Free,fed_emergency_relief,Emergency Relief Provider Outlets,Department of Social Services,federal,CC-BY-3.0-AU,https://data.gov.au/data/dataset/d667403f-2016-463f-bb0a-3087ae67c57f,2026-04-19,complete
fed_emergency_relief_0024,Moura Emergency Relief,Emergency relief provider operated by Anglicare Central Queensland,financial,Unit 3 3 Marshall St MOURA QLD 4718,Moura,QLD,4718,-24.5684761,149.9753626,,,http://www.anglicarecq.org.au,,,Free,fed_emergency_relief,Emergency Relief Provider Outlets,Department of Social Services,federal,CC-BY-3.0-AU,https://data.gov.au/data/dataset/d667403f-2016-463f-bb0a-3087ae67c57f,2026-04-19,complete
fed_emergency_relief_0025,Longreach Emergency Relief,Emergency relief provider operated by Anglicare Central Queensland,financial,"Lot 1, 15 Pelican Street LONGREACH QLD 4730",Longreach,QLD,4730,-23.4440484,144.2458326,,,http://www.anglicarecq.org.au,,,Free,fed_emergency_relief,Emergency Relief Provider Outlets,Department of Social Services,federal,CC-BY-3.0-AU,https://data.gov.au/data/dataset/d667403f-2016-463f-bb0a-3087ae67c57f,2026-04-19,complete
fed_emergency_relief_0026,Winton Emergency Relief,Emergency relief provider operated by Anglicare Central Queensland,financial,"Lot 1, 57 Elderslie Street WINTON QLD 4735",Winton,QLD,4735,-22.3899285,143.0392725,,,http://www.anglicarecq.org.au,,,Free,fed_emergency_relief,Emergency Relief Provider Outlets,Department of Social Services,federal,CC-BY-3.0-AU,https://data.gov.au/data/dataset/d667403f-2016-463f-bb0a-3087ae67c57f,2026-04-19,complete
fed_emergency_relief_0027,Nhulunbuy Program Base,Emergency relief provider operated by ANGLICARE N.T. LTD.,financial,"Lot 6, 93 Chesterfield Circuit NHULUNBUY NT 0811",Nhulunbuy,NT,0811,-12.1853524,136.786471,,,http://www.anglicare-nt.org.au,,,Free,fed_emergency_relief,Emergency Relief Provider Outlets,Department of Social Services,federal,CC-BY-3.0-AU,https://data.gov.au/data/dataset/d667403f-2016-463f-bb0a-3087ae67c57f,2026-04-19,complete
fed_emergency_relief_0028,Ludmilla Program Base,Emergency relief provider operated by ANGLICARE N.T. LTD.,financial,5 Nemarluk Dr LUDMILLA NT 0820,Ludmilla,NT,0820,-12.422841,130.854924,,,http://www.anglicare-nt.org.au,,,Free,fed_emergency_relief,Emergency Relief Provider Outlets,Department of Social Services,federal,CC-BY-3.0-AU,https://data.gov.au/data/dataset/d667403f-2016-463f-bb0a-3087ae67c57f,2026-04-19,complete
fed_emergency_relief_0029,Palmerston Program Base,Emergency relief provider operated by ANGLICARE N.T. LTD.,financial,Shop 11 Palmerston Circuit PALMERSTON NT 0830,Palmerston,NT,0830,-12.4781182,130.983937,,,http://www.anglicare-nt.org.au,,,Free,fed_emergency_relief,Emergency Relief Provider Outlets,Department of Social Services,federal,CC-BY-3.0-AU,https://data.gov.au/data/dataset/d667403f-2016-463f-bb0a-3087ae67c57f,2026-04-19,complete
fed_emergency_relief_0030,Emergency Relief,Emergency relief provider operated by Anglicare North Coast,financial,7 Wiseman Way Grafton NSW 2460,Grafton,NSW,2460,-29.6911496,152.9343126,,,http://www.anglicarenorthcoast.org.au,,,Free,fed_emergency_relief,Emergency Relief Provider Outlets,Department of Social Services,federal,CC-BY-3.0-AU,https://data.gov.au/data/dataset/d667403f-2016-463f-bb0a-3087ae67c57f,2026-04-19,complete
fed_emergency_relief_0031,Eden,"Emergency relief provider operated by Anglicare NSW South, NSW West & ACT",financial,"179, Imlay Street EDEN NSW 2551",Eden,NSW,2551,-37.0650116,149.9057496,,,http://www.anglicare.com.au,,,Free,fed_emergency_relief,Emergency Relief Provider Outlets,Department of Social Services,federal,CC-BY-3.0-AU,https://data.gov.au/data/dataset/d667403f-2016-463f-bb0a-3087ae67c57f,2026-04-19,complete
fed_emergency_relief_0032,Goulburn,"Emergency relief provider operated by Anglicare NSW South, NSW West & ACT",financial,"130, Cowper Street GOULBURN NSW 2580",Goulburn,NSW,2580,-34.7527991,149.7126129,,,http://www.anglicare.com.au,,,Free,fed_emergency_relief,Emergency Relief Provider Outlets,Department of Social Services,federal,CC-BY-3.0-AU,https://data.gov.au/data/dataset/d667403f-2016-463f-bb0a-3087ae67c57f,2026-04-19,complete
fed_emergency_relief_0033,Yass,"Emergency relief provider operated by Anglicare NSW South, NSW West & ACT",financial,Meehan Street YASS NSW 2582,Yass,NSW,2582,-34.8404936,148.9139387,,,http://www.anglicare.com.au,,,Free,fed_emergency_relief,Emergency Relief Provider Outlets,Department of Social Services,federal,CC-BY-3.0-AU,https://data.gov.au/data/dataset/d667403f-2016-463f-bb0a-3087ae67c57f,2026-04-19,complete
fed_emergency_relief_0034,Young,"Emergency relief provider operated by Anglicare NSW South, NSW West & ACT",financial,"19, Cloete Street YOUNG NSW 2594",Young,NSW,2594,-34.3146395,148.299533,,,http://www.anglicare.com.au,,,Free,fed_emergency_relief,Emergency Relief Provider Outlets,Department of Social Services,federal,CC-BY-3.0-AU,https://data.gov.au/data/dataset/d667403f-2016-463f-bb0a-3087ae67c57f,2026-04-19,complete
fed_emergency_relief_0035,Club 12/25,"Emergency relief provider operated by Anglicare NSW South, NSW West & ACT",financial,Cnr Cooyong Street/Scotts Crossing Civic CANBERRA ACT 2601,Canberra,ACT,2601,-35.2812681,149.1291889,,,http://www.anglicare.com.au,,,Free,fed_emergency_relief,Emergency Relief Provider Outlets,Department of Social Services,federal,CC-BY-3.0-AU,https://data.gov.au/data/dataset/d667403f-2016-463f-bb0a-3087ae67c57f,2026-04-19,complete
fed_emergency_relief_0036,St John's Care,"Emergency relief provider operated by Anglicare NSW South, NSW West & ACT",financial,"45, Constitution Avenue Reid CANBERRA ACT 2612",Canberra,ACT,2612,-35.2880033,149.1393026,,,http://www.anglicare.com.au,,,Free,fed_emergency_relief,Emergency Relief Provider Outlets,Department of Social Services,federal,CC-BY-3.0-AU,https://data.gov.au/data/dataset/d667403f-2016-463f-bb0a-3087ae67c57f,2026-04-19,complete
fed_emergency_relief_0037,Ashmont Community Centre,"Emergency relief provider operated by Anglicare NSW South, NSW West & ACT",financial,Cnr Tobruk Street/Blakemore Ashmont WAGGA WAGGA NSW 2650,Wagga Wagga,NSW,2650,-35.126127,147.329024,,,http://www.anglicare.com.au,,,Free,fed_emergency_relief,Emergency Relief Provider Outlets,Department of Social Services,federal,CC-BY-3.0-AU,https://data.gov.au/data/dataset/d667403f-2016-463f-bb0a-3087ae67c57f,2026-04-19,complete
fed_emergency_relief_0038,Orange,"Emergency relief provider operated by Anglicare NSW South, NSW West & ACT",financial,127 Byng Street ORANGE NSW 2800,Orange,NSW,2800,-33.2813369,149.1010022,,,http://www.anglicare.com.au,,,Free,fed_emergency_relief,Emergency Relief Provider Outlets,Department of Social Services,federal,CC-BY-3.0-AU,https://data.gov.au/data/dataset/d667403f-2016-463f-bb0a-3087ae67c57f,2026-04-19,complete
fed_emergency_relief_0039,Rylstone/Kandos,"Emergency relief provider operated by Anglicare NSW South, NSW West & ACT",financial,45 Mudgee Street RYLSTONE NSW 2849,Rylstone,NSW,2849,-32.7980497,149.9720901,,,http://www.anglicare.com.au,,,Free,fed_emergency_relief,Emergency Relief Provider Outlets,Department of Social Services,federal,CC-BY-3.0-AU,https://data.gov.au/data/dataset/d667403f-2016-463f-bb0a-3087ae67c57f,2026-04-19,complete
fed_emergency_relief_0040,Magdalene Centre,Emergency relief provider operated by Anglicare SA Inc,financial,35A Whitmore Square Adelaide SA 5000,Adelaide,SA,5000,-34.9329956,138.5931409,,,http://www.anglicare-sa.org.au/,,,Free,fed_emergency_relief,Emergency Relief Provider Outlets,Department of Social Services,federal,CC-BY-3.0-AU,https://data.gov.au/data/dataset/d667403f-2016-463f-bb0a-3087ae67c57f,2026-04-19,complete
fed_emergency_relief_0041,The Picket Fence,Emergency relief provider operated by Anglicare SA Inc,financial,1167 South Road ST MARYS SA 5042,St Marys,SA,5042,-34.9968969,138.5757166,,,http://www.anglicare-sa.org.au/,,,Free,fed_emergency_relief,Emergency Relief Provider Outlets,Department of Social Services,federal,CC-BY-3.0-AU,https://data.gov.au/data/dataset/d667403f-2016-463f-bb0a-3087ae67c57f,2026-04-19,complete
fed_emergency_relief_0042,Salisbury Old Rectory,Emergency relief provider operated by Anglicare SA Inc,financial,9 Mary Street Salisbury SA 5108,Salisbury,SA,5108,-34.763816,138.6465034,,,http://www.anglicare-sa.org.au/,,,Free,fed_emergency_relief,Emergency Relief Provider Outlets,Department of Social Services,federal,CC-BY-3.0-AU,https://data.gov.au/data/dataset/d667403f-2016-463f-bb0a-3087ae67c57f,2026-04-19,complete
fed_emergency_relief_0043,Elizabeth Mission,Emergency relief provider operated by Anglicare SA Inc,financial,91 Elizabeth Way ELIZABETH SA 5112,Elizabeth,SA,5112,-34.715736,138.6685369,,,http://www.anglicare-sa.org.au/,,,Free,fed_emergency_relief,Emergency Relief Provider Outlets,Department of Social Services,federal,CC-BY-3.0-AU,https://data.gov.au/data/dataset/d667403f-2016-463f-bb0a-3087ae67c57f,2026-04-19,complete
fed_emergency_relief_0044,St Hillary's,Emergency relief provider operated by Anglicare SA Inc,financial,1 William Street Morphett Vale SA 5162,Morphett Vale,SA,5162,-35.1224658,138.5244773,,,http://www.anglicare-sa.org.au/,,,Free,fed_emergency_relief,Emergency Relief Provider Outlets,Department of Social Services,federal,CC-BY-3.0-AU,https://data.gov.au/data/dataset/d667403f-2016-463f-bb0a-3087ae67c57f,2026-04-19,complete
fed_emergency_relief_0045,ac.care - Murray Bridge,Emergency relief provider operated by Anglicare SA Inc,financial,11-22 Kennett Road MURRAY BRIDGE SA 5253,Murray Bridge,SA,5253,-35.1154546,139.2917197,,,http://www.anglicare-sa.org.au/,,,Free,fed_emergency_relief,Emergency Relief Provider Outlets,Department of Social Services,federal,CC-BY-3.0-AU,https://data.gov.au/data/dataset/d667403f-2016-463f-bb0a-3087ae67c57f,2026-04-19,complete
fed_emergency_relief_0046,ac.care - Millicent Community Centre,Emergency relief provider operated by Anglicare SA Inc,financial,57-59 George Street MILLICENT SA 5280,Millicent,SA,5280,-37.5952193,140.3546557,,,http://www.anglicare-sa.org.au/,,,Free,fed_emergency_relief,Emergency Relief Provider Outlets,Department of Social Services,federal,CC-BY-3.0-AU,https://data.gov.au/data/dataset/d667403f-2016-463f-bb0a-3087ae67c57f,2026-04-19,complete
fed_emergency_relief_0047,ac.care - Mount Gambier Community Centre,Emergency relief provider operated by Anglicare SA Inc,financial,22 Ferrers Street Mount Gambier SA 5290,Mount Gambier,SA,5290,-37.8317939,140.781001,,,http://www.anglicare-sa.org.au/,,,Free,fed_emergency_relief,Emergency Relief Provider Outlets,Department of Social Services,federal,CC-BY-3.0-AU,https://data.gov.au/data/dataset/d667403f-2016-463f-bb0a-3087ae67c57f,2026-04-19,complete
fed_emergency_relief_0048,ac.care - Waikerie Community Centre,Emergency relief provider operated by Anglicare SA Inc,financial,1 Crush Terrace Waikerie SA 5330,Waikerie,SA,5330,-34.1806059,139.9866496,,,http://www.anglicare-sa.org.au/,,,Free,fed_emergency_relief,Emergency Relief Provider Outlets,Department of Social Services,federal,CC-BY-3.0-AU,https://data.gov.au/data/dataset/d667403f-2016-463f-bb0a-3087ae67c57f,2026-04-19,complete
fed_emergency_relief_0049,ac.care - Berri,Emergency relief provider operated by Anglicare SA Inc,financial,7 Wilson Street Berri SA 5343,Berri,SA,5343,-34.2858115,140.599815,,,http://www.anglicare-sa.org.au/,,,Free,fed_emergency_relief,Emergency Relief Provider Outlets,Department of Social Services,federal,CC-BY-3.0-AU,https://data.gov.au/data/dataset/d667403f-2016-463f-bb0a-3087ae67c57f,2026-04-19,complete
fed_emergency_relief_0050,Chatt Centre,Emergency relief provider operated by Anglicare SA Inc,financial,3 Robert St Maitland SA 5573,Maitland,SA,5573,-34.376398,137.672256,,,http://www.anglicare-sa.org.au/,,,Free,fed_emergency_relief,Emergency Relief Provider Outlets,Department of Social Services,federal,CC-BY-3.0-AU,https://data.gov.au/data/dataset/d667403f-2016-463f-bb0a-3087ae67c57f,2026-04-19,complete
fed_emergency_relief_0051,Willochra,Emergency relief provider operated by Anglicare SA Inc,financial,34-36 Galpin Street Whyalla Stuart SA 5608,Whyalla Stuart,SA,5608,-33.0227455,137.5236074,,,http://www.anglicare-sa.org.au/,,,Free,fed_emergency_relief,Emergency Relief Provider Outlets,Department of Social Services,federal,CC-BY-3.0-AU,https://data.gov.au/data/dataset/d667403f-2016-463f-bb0a-3087ae67c57f,2026-04-19,complete
fed_emergency_relief_0052,Williamstown ER,Emergency relief provider operated by Anglicare Victoria,financial,179 Melbourne Road Williamstown VIC 3016,Williamstown,VIC,3016,-37.8524919,144.8895808,,,http://www.anglicarevic.org.au,,,Free,fed_emergency_relief,Emergency Relief Provider Outlets,Department of Social Services,federal,CC-BY-3.0-AU,https://data.gov.au/data/dataset/d667403f-2016-463f-bb0a-3087ae67c57f,2026-04-19,complete
fed_emergency_relief_0053,Sunshine ER,Emergency relief provider operated by Anglicare Victoria,financial,49 Sun Crescent Sunshine VIC 3020,Sunshine,VIC,3020,-37.7862775,144.8278212,,,http://www.anglicarevic.org.au,,,Free,fed_emergency_relief,Emergency Relief Provider Outlets,Department of Social Services,federal,CC-BY-3.0-AU,https://data.gov.au/data/dataset/d667403f-2016-463f-bb0a-3087ae67c57f,2026-04-19,complete
fed_emergency_relief_0054,St Albans ER,Emergency relief provider operated by Anglicare Victoria,financial,46 East Esplanade St Albans VIC 3021,St Albans,VIC,3021,-37.7392223,144.7974665,,,http://www.anglicarevic.org.au,,,Free,fed_emergency_relief,Emergency Relief Provider Outlets,Department of Social Services,federal,CC-BY-3.0-AU,https://data.gov.au/data/dataset/d667403f-2016-463f-bb0a-3087ae67c57f,2026-04-19,complete
fed_emergency_relief_0055,Sydenham ER,Emergency relief provider operated by Anglicare Victoria,financial,43 Bellbird Avenue SYDENHAM VIC 3037,Sydenham,VIC,3037,-37.69638,144.783496,,,http://www.anglicarevic.org.au,,,Free,fed_emergency_relief,Emergency Relief Provider Outlets,Department of Social Services,federal,CC-BY-3.0-AU,https://data.gov.au/data/dataset/d667403f-2016-463f-bb0a-3087ae67c57f,2026-04-19,complete
fed_emergency_relief_0056,Craigieburn ER,Emergency relief provider operated by Anglicare Victoria,financial,59 Craigieburn Road Craigieburn VIC 3064,Craigieburn,VIC,3064,-37.5984141,144.9350188,,,http://www.anglicarevic.org.au,,,Free,fed_emergency_relief,Emergency Relief Provider Outlets,Department of Social Services,federal,CC-BY-3.0-AU,https://data.gov.au/data/dataset/d667403f-2016-463f-bb0a-3087ae67c57f,2026-04-19,complete
fed_emergency_relief_0057,Mission House - Fitzroy,Emergency relief provider operated by Anglicare Victoria,financial,122 Napier Street Fitzroy VIC 3065,Fitzroy,VIC,3065,-37.8045298,144.9798685,,,http://www.anglicarevic.org.au,,,Free,fed_emergency_relief,Emergency Relief Provider Outlets,Department of Social Services,federal,CC-BY-3.0-AU,https://data.gov.au/data/dataset/d667403f-2016-463f-bb0a-3087ae67c57f,2026-04-19,complete
fed_emergency_relief_0058,St Marks Community Centre,Emergency relief provider operated by Anglicare Victoria,financial,250 George Street Fitzroy VIC 3065,Fitzroy,VIC,3065,-37.8018335,144.9815525,,,http://www.anglicarevic.org.au,,,Free,fed_emergency_relief,Emergency Relief Provider Outlets,Department of Social Services,federal,CC-BY-3.0-AU,https://data.gov.au/data/dataset/d667403f-2016-463f-bb0a-3087ae67c57f,2026-04-19,complete
fed_emergency_relief_0059,Preston ER,Emergency relief provider operated by Anglicare Victoria,financial,42 Mary Street PRESTON VIC 3072,Preston,VIC,3072,-37.741947,145.002139,,,http://www.anglicarevic.org.au,,,Free,fed_emergency_relief,Emergency Relief Provider Outlets,Department of Social Services,federal,CC-BY-3.0-AU,https://data.gov.au/data/dataset/d667403f-2016-463f-bb0a-3087ae67c57f,2026-04-19,complete
fed_emergency_relief_0060,Dixon House-Clayton,Emergency relief provider operated by Anglicare Victoria,financial,2 Dixon Street Clayton VIC 3168,Clayton,VIC,3168,-37.9190197,145.1220408,,,http://www.anglicarevic.org.au,,,Free,fed_emergency_relief,Emergency Relief Provider Outlets,Department of Social Services,federal,CC-BY-3.0-AU,https://data.gov.au/data/dataset/d667403f-2016-463f-bb0a-3087ae67c57f,2026-04-19,complete
fed_emergency_relief_0061,Anglicare Warnambool,Emergency relief provider operated by Anglicare Victoria,financial,230 Koroit Street Warrnambool VIC 3280,Warrnambool,VIC,3280,-38.3803852,142.4769387,,,http://www.anglicarevic.org.au,,,Free,fed_emergency_relief,Emergency Relief Provider Outlets,Department of Social Services,federal,CC-BY-3.0-AU,https://data.gov.au/data/dataset/d667403f-2016-463f-bb0a-3087ae67c57f,2026-04-19,complete
fed_emergency_relief_0062,Anglicare Ballarat,Emergency relief provider operated by Anglicare Victoria,financial,14 Victoria St BAKERY HILL VIC 3350,Bakery Hill,VIC,3350,-37.5630082,143.8664926,,,http://www.anglicarevic.org.au,,,Free,fed_emergency_relief,Emergency Relief Provider Outlets,Department of Social Services,federal,CC-BY-3.0-AU,https://data.gov.au/data/dataset/d667403f-2016-463f-bb0a-3087ae67c57f,2026-04-19,complete
fed_emergency_relief_0063,Sebastopol ER,Emergency relief provider operated by Anglicare Victoria,financial,227 Albert Street Sebastopol VIC 3356,Sebastopol,VIC,3356,-37.601007,143.8413331,,,http://www.anglicarevic.org.au,,,Free,fed_emergency_relief,Emergency Relief Provider Outlets,Department of Social Services,federal,CC-BY-3.0-AU,https://data.gov.au/data/dataset/d667403f-2016-463f-bb0a-3087ae67c57f,2026-04-19,complete
fed_emergency_relief_0064,Anglicare Warragul,Emergency relief provider operated by Anglicare Victoria,financial,3 Barkly Street WARRAGUL VIC 3820,Warragul,VIC,3820,-38.1607273,145.9328936,,,http://www.anglicarevic.org.au,,,Free,fed_emergency_relief,Emergency Relief Provider Outlets,Department of Social Services,federal,CC-BY-3.0-AU,https://data.gov.au/data/dataset/d667403f-2016-463f-bb0a-3087ae67c57f,2026-04-19,complete
fed_emergency_relief_0065,Korumburra ER,Emergency relief provider operated by Anglicare Victoria,financial,21 Shellcotts Road KORUMBURRA VIC 3950,Korumburra,VIC,3950,-38.4389428,145.822372,,,http://www.anglicarevic.org.au,,,Free,fed_emergency_relief,Emergency Relief Provider Outlets,Department of Social Services,federal,CC-BY-3.0-AU,https://data.gov.au/data/dataset/d667403f-2016-463f-bb0a-3087ae67c57f,2026-04-19,complete
fed_emergency_relief_0066,Uniting Church Ararat,Emergency relief provider operated by Ararat Emergency Relief Committee,financial,279 Barkly Street ARARAT VIC 3377,Ararat,VIC,3377,-37.2841953,142.9378347,,,,,,Free,fed_emergency_relief,Emergency Relief Provider Outlets,Department of Social Services,federal,CC-BY-3.0-AU,https://data.gov.au/data/dataset/d667403f-2016-463f-bb0a-3087ae67c57f,2026-04-19,partial
fed_emergency_relief_0067,Anglican Church Of Australia Ararat Parish,Emergency relief provider operated by Ararat Emergency Relief Committee,financial,47 High Street ARARAT VIC 3377,Ararat,VIC,3377,-37.2833323,142.9267058,,,,,,Free,fed_emergency_relief,Emergency Relief Provider Outlets,Department of Social Services,federal,CC-BY-3.0-AU,https://data.gov.au/data/dataset/d667403f-2016-463f-bb0a-3087ae67c57f,2026-04-19,partial
fed_emergency_relief_0068,Salvation Army Ararat Corp,Emergency relief provider operated by Ararat Emergency Relief Committee,financial,87 Vincent Street ARARAT VIC 3377,Ararat,VIC,3377,-37.2794714,142.9307259,,,,,,Free,fed_emergency_relief,Emergency Relief Provider Outlets,Department of Social Services,federal,CC-BY-3.0-AU,https://data.gov.au/data/dataset/d667403f-2016-463f-bb0a-3087ae67c57f,2026-04-19,partial
fed_emergency_relief_0069,Church of Christ Ararat,Emergency relief provider operated by Ararat Emergency Relief Committee,financial,88 High Street ARARAT VIC 3377,Ararat,VIC,3377,-37.2831841,142.9361619,,,,,,Free,fed_emergency_relief,Emergency Relief Provider Outlets,Department of Social Services,federal,CC-BY-3.0-AU,https://data.gov.au/data/dataset/d667403f-2016-463f-bb0a-3087ae67c57f,2026-04-19,partial
fed_emergency_relief_0070,Armidale Neighbourhood Centre Inc,Emergency relief provider operated by Armidale Neighbourhood Centre Incorporated,financial,129 Rusden Street Armidale NSW 2350,Armidale,NSW,2350,-30.5145716,151.6663312,,,http://www.armidalenc.org.au/,,,Free,fed_emergency_relief,Emergency Relief Provider Outlets,Department of Social Services,federal,CC-BY-3.0-AU,https://data.gov.au/data/dataset/d667403f-2016-463f-bb0a-3087ae67c57f,2026-04-19,complete
fed_emergency_relief_0071,ATSI Corporation (NSW),Emergency relief provider operated by ATSI Corporation for Welfare Resource And Housing,financial,D10 Airport Central 1 Eastern Ave COOLANGATTA QLD 4225,Coolangatta,QLD,4225,-28.1634955,153.5126201,,,,,,Free,fed_emergency_relief,Emergency Relief Provider Outlets,Department of Social Services,federal,CC-BY-3.0-AU,https://data.gov.au/data/dataset/d667403f-2016-463f-bb0a-3087ae67c57f,2026-04-19,partial
fed_emergency_relief_0072,ATSI Corporation for Welfare Resource And Housing,Emergency relief provider operated by ATSI Corporation for Welfare Resource And Housing,financial,D10 Eastern Avenue Airport Central BILINGA QLD 4225,Bilinga,QLD,4225,-28.1634955,153.5126201,,,,,,Free,fed_emergency_relief,Emergency Relief Provider Outlets,Department of Social Services,federal,CC-BY-3.0-AU,https://data.gov.au/data/dataset/d667403f-2016-463f-bb0a-3087ae67c57f,2026-04-19,partial
fed_emergency_relief_0073,Auburn Asian Welfare Centre Inc,Emergency relief provider operated by Auburn Asian Welfare Centre Inc,financial,8 Rawson Street LIDCOMBE NSW 2141,Lidcombe,NSW,2141,-33.8599842,151.0501044,,,http://www.aawcentre.org.au,,,Free,fed_emergency_relief,Emergency Relief Provider Outlets,Department of Social Services,federal,CC-BY-3.0-AU,https://data.gov.au/data/dataset/d667403f-2016-463f-bb0a-3087ae67c57f,2026-04-19,complete
fed_emergency_relief_0074,Australian Anatolian Community Services Co-op Ltd,Emergency relief provider operated by Australian Anatolian Community Services Co-op Ltd,financial,50-52 Susan St AUBURN NSW 2144,Auburn,NSW,2144,-33.8564507,151.0334084,,,http://www.atkcs.org.au,,,Free,fed_emergency_relief,Emergency Relief Provider Outlets,Department of Social Services,federal,CC-BY-3.0-AU,https://data.gov.au/data/dataset/d667403f-2016-463f-bb0a-3087ae67c57f,2026-04-19,complete
fed_emergency_relief_0075,Australian Greek Welfare Society Ltd,Emergency relief provider operated by Australian Greek Welfare Society Limited,financial,7 Union Street Brunswick VIC 3056,Brunswick,VIC,3056,-37.774272,144.959745,,,http://www.agws.com.au,,,Free,fed_emergency_relief,Emergency Relief Provider Outlets,Department of Social Services,federal,CC-BY-3.0-AU,https://data.gov.au/data/dataset/d667403f-2016-463f-bb0a-3087ae67c57f,2026-04-19,complete
fed_emergency_relief_0076,Withheld,Emergency relief provider operated by Australian Red Cross Society,financial,Withheld,Withheld,,Withheld,-31.887597,115.821542,,,http://www.redcross.org.au,,,Free,fed_emergency_relief,Emergency Relief Provider Outlets,Department of Social Services,federal,CC-BY-3.0-AU,https://data.gov.au/data/dataset/d667403f-2016-463f-bb0a-3087ae67c57f,2026-04-19,complete
fed_emergency_relief_0077,NSW - Kent Street,Emergency relief provider operated by Australian Red Cross Society,financial,St Andrews House L 1 464 Kent St SYDNEY NSW 2000,Sydney,NSW,2000,-33.8738312,151.2056379,,,http://www.redcross.org.au,,,Free,fed_emergency_relief,Emergency Relief Provider Outlets,Department of Social Services,federal,CC-BY-3.0-AU,https://data.gov.au/data/dataset/d667403f-2016-463f-bb0a-3087ae67c57f,2026-04-19,complete
fed_emergency_relief_0078,NSW - JRS Parramatta,Emergency relief provider operated by Australian Red Cross Society,financial,4 Victoria Rd Parramatta NSW 2150,Parramatta,NSW,2150,-33.8078596,151.0029099,,,http://www.redcross.org.au,,,Free,fed_emergency_relief,Emergency Relief Provider Outlets,Department of Social Services,federal,CC-BY-3.0-AU,https://data.gov.au/data/dataset/d667403f-2016-463f-bb0a-3087ae67c57f,2026-04-19,complete
fed_emergency_relief_0079,VIC - Villiers Street,Emergency relief provider operated by Australian Red Cross Society,financial,23-47 Villiers Street NORTH MELBOURNE VIC 3051,North Melbourne,VIC,3051,-37.7993756,144.9528867,,,http://www.redcross.org.au,,,Free,fed_emergency_relief,Emergency Relief Provider Outlets,Department of Social Services,federal,CC-BY-3.0-AU,https://data.gov.au/data/dataset/d667403f-2016-463f-bb0a-3087ae67c57f,2026-04-19,complete
fed_emergency_relief_0080,VIC - Dandenong,Emergency relief provider operated by Australian Red Cross Society,financial,FL 4 311-319 Lonsdale St DANDENONG VIC 3175,Dandenong,VIC,3175,-37.9863209,145.2134229,,,http://www.redcross.org.au,,,Free,fed_emergency_relief,Emergency Relief Provider Outlets,Department of Social Services,federal,CC-BY-3.0-AU,https://data.gov.au/data/dataset/d667403f-2016-463f-bb0a-3087ae67c57f,2026-04-19,complete
fed_emergency_relief_0081,VIC - Shepparton,Emergency relief provider operated by Australian Red Cross Society,financial,399 Wyndham Street Shepparton VIC 3630,Shepparton,VIC,3630,-36.3825901,145.3992757,,,http://www.redcross.org.au,,,Free,fed_emergency_relief,Emergency Relief Provider Outlets,Department of Social Services,federal,CC-BY-3.0-AU,https://data.gov.au/data/dataset/d667403f-2016-463f-bb0a-3087ae67c57f,2026-04-19,complete
fed_emergency_relief_0082,"WA - Goderich Street, East Perth",Emergency relief provider operated by Australian Red Cross Society,financial,110 Goderich St East Perth WA 6004,East Perth,WA,6004,-31.95656,115.87141,,,http://www.redcross.org.au,,,Free,fed_emergency_relief,Emergency Relief Provider Outlets,Department of Social Services,federal,CC-BY-3.0-AU,https://data.gov.au/data/dataset/d667403f-2016-463f-bb0a-3087ae67c57f,2026-04-19,complete
fed_emergency_relief_0083,WA - Gosnells Community Legal Centre,Emergency relief provider operated by Australian Red Cross Society,financial,"Suite 1, Gosnells Community Lotteries House GOSNELLS WA 6110",Gosnells,WA,6110,-32.0408038,115.8814383,,,http://www.redcross.org.au,,,Free,fed_emergency_relief,Emergency Relief Provider Outlets,Department of Social Services,federal,CC-BY-3.0-AU,https://data.gov.au/data/dataset/d667403f-2016-463f-bb0a-3087ae67c57f,2026-04-19,complete
fed_emergency_relief_0084,"WA - Leasham Way, Kwinana",Emergency relief provider operated by Australian Red Cross Society,financial,13 Leasham Way KWINANA WA 6167,Kwinana,WA,6167,-32.2391249,115.8120695,,,http://www.redcross.org.au,,,Free,fed_emergency_relief,Emergency Relief Provider Outlets,Department of Social Services,federal,CC-BY-3.0-AU,https://data.gov.au/data/dataset/d667403f-2016-463f-bb0a-3087ae67c57f,2026-04-19,complete
fed_emergency_relief_0085,"WA - Chisham Ave & Robbos Way, Kwinana",Emergency relief provider operated by Australian Red Cross Society,financial,Cnr Chisham Ave and Robbos Way KWINANA WA 6167,Kwinana,WA,6167,-32.243736,115.813215,,,http://www.redcross.org.au,,,Free,fed_emergency_relief,Emergency Relief Provider Outlets,Department of Social Services,federal,CC-BY-3.0-AU,https://data.gov.au/data/dataset/d667403f-2016-463f-bb0a-3087ae67c57f,2026-04-19,complete
fed_emergency_relief_0086,"WA - Lane Street, Kalgoorlie",Emergency relief provider operated by Australian Red Cross Society,financial,32 Lane St Kalgoorlie WA 6430,Kalgoorlie,WA,6430,-30.7517624,121.469449,,,http://www.redcross.org.au,,,Free,fed_emergency_relief,Emergency Relief Provider Outlets,Department of Social Services,federal,CC-BY-3.0-AU,https://data.gov.au/data/dataset/d667403f-2016-463f-bb0a-3087ae67c57f,2026-04-19,complete
fed_emergency_relief_0087,"WA - Frederick St, Broome",Emergency relief provider operated by Australian Red Cross Society,financial,2/38 Frederick St BROOME WA 6725,Broome,WA,6725,-17.955,122.23606,,,http://www.redcross.org.au,,,Free,fed_emergency_relief,Emergency Relief Provider Outlets,Department of Social Services,federal,CC-BY-3.0-AU,https://data.gov.au/data/dataset/d667403f-2016-463f-bb0a-3087ae67c57f,2026-04-19,complete
fed_emergency_relief_0088,"WA - Loch Street, Derby",Emergency relief provider operated by Australian Red Cross Society,financial,47 Loch St DERBY WA 6728,Derby,WA,6728,-17.30249,123.62951,,,http://www.redcross.org.au,,,Free,fed_emergency_relief,Emergency Relief Provider Outlets,Department of Social Services,federal,CC-BY-3.0-AU,https://data.gov.au/data/dataset/d667403f-2016-463f-bb0a-3087ae67c57f,2026-04-19,complete
fed_emergency_relief_0089,Underdale,Emergency relief provider operated by Australian Refugee Association Inc,financial,304 Henley Beach Road Underdale SA 5032,Underdale,SA,5032,-34.9244625,138.5473773,,,http://www.australianrefugee.org,,,Free,fed_emergency_relief,Emergency Relief Provider Outlets,Department of Social Services,federal,CC-BY-3.0-AU,https://data.gov.au/data/dataset/d667403f-2016-463f-bb0a-3087ae67c57f,2026-04-19,complete
fed_emergency_relief_0090,Salisbury,Emergency relief provider operated by Australian Refugee Association Inc,financial,32 Commercial Road Salisbury SA 5108,Salisbury,SA,5108,-34.7638738,138.6491698,,,http://www.australianrefugee.org,,,Free,fed_emergency_relief,Emergency Relief Provider Outlets,Department of Social Services,federal,CC-BY-3.0-AU,https://data.gov.au/data/dataset/d667403f-2016-463f-bb0a-3087ae67c57f,2026-04-19,complete
fed_emergency_relief_0091,Australian Multicultural Community Services Inc.,Emergency relief provider operated by Australian-Multicultural Community Services Inc.,financial,"Suite 11, 44-56 Hampstead Rd MAIDSTONE VIC 3012",Maidstone,VIC,3012,-37.7787303,144.8756028,,,http://www.amcservices.org.au,,,Free,fed_emergency_relief,Emergency Relief Provider Outlets,Department of Social Services,federal,CC-BY-3.0-AU,https://data.gov.au/data/dataset/d667403f-2016-463f-bb0a-3087ae67c57f,2026-04-19,complete
fed_emergency_relief_0092,Banyule Community Health - West Heidelberg site,Emergency relief provider operated by Banyule Community Health,financial,21 Alamein Rd HEIDELBERG WEST VIC 3081,Heidelberg West,VIC,3081,-37.7392309,145.0407215,,,http://www.bchs.org.au/,,,Free,fed_emergency_relief,Emergency Relief Provider Outlets,Department of Social Services,federal,CC-BY-3.0-AU,https://data.gov.au/data/dataset/d667403f-2016-463f-bb0a-3087ae67c57f,2026-04-19,complete
fed_emergency_relief_0093,Emergency Relief Inner City Services,Emergency relief provider operated by Baptist Care (SA) Inc,financial,11-19 Millers Crt ADELAIDE SA 5000,Adelaide,SA,5000,-34.9313735,138.5919615,,,http://www.baptistcaresa.org.au,,,Free,fed_emergency_relief,Emergency Relief Provider Outlets,Department of Social Services,federal,CC-BY-3.0-AU,https://data.gov.au/data/dataset/d667403f-2016-463f-bb0a-3087ae67c57f,2026-04-19,complete
fed_emergency_relief_0094,Baptist Care Northern Territory,Emergency relief provider operated by BAPTIST CARE NORTHERN TERRITORY,financial,"44 Dripstone Road, CASUARINA, NT, 0810",Casuarina,NT,0810,-12.375746,130.877662,,,http://www.bcnt.org.au,,,Free,fed_emergency_relief,Emergency Relief Provider Outlets,Department of Social Services,federal,CC-BY-3.0-AU,https://data.gov.au/data/dataset/d667403f-2016-463f-bb0a-3087ae67c57f,2026-04-19,complete
fed_emergency_relief_0095,Baptist Care Northern Territory,Emergency relief provider operated by BAPTIST CARE NORTHERN TERRITORY,financial,"9 Mel Road, BERRIMAH, NT, 0828",Berrimah,NT,0828,-12.440497,130.920788,,,http://www.bcnt.org.au,,,Free,fed_emergency_relief,Emergency Relief Provider Outlets,Department of Social Services,federal,CC-BY-3.0-AU,https://data.gov.au/data/dataset/d667403f-2016-463f-bb0a-3087ae67c57f,2026-04-19,complete
fed_emergency_relief_0096,BaptistCare NSW & ACT - Bankstown,Emergency relief provider operated by BaptistCare NSW & ACT,financial,Level 2 402-410 Chapel Road BANKSTOWN NSW 2200,Bankstown,NSW,2200,-33.9150977,151.0336316,,,http://www.baptistcare.org.au,,,Free,fed_emergency_relief,Emergency Relief Provider Outlets,Department of Social Services,federal,CC-BY-3.0-AU,https://data.gov.au/data/dataset/d667403f-2016-463f-bb0a-3087ae67c57f,2026-04-19,complete
fed_emergency_relief_0097,BaptistCare NSW & ACT - Goulburn,Emergency relief provider operated by BaptistCare NSW & ACT,financial,164 Bourke St GOULBURN NSW 2580,Goulburn,NSW,2580,-34.7544404,149.7149366,,,http://www.baptistcare.org.au,,,Free,fed_emergency_relief,Emergency Relief Provider Outlets,Department of Social Services,federal,CC-BY-3.0-AU,https://data.gov.au/data/dataset/d667403f-2016-463f-bb0a-3087ae67c57f,2026-04-19,complete
fed_emergency_relief_0098,BaptistCare NSW & ACT - Dubbo,Emergency relief provider operated by BaptistCare NSW & ACT,financial,179 Brisbane St DUBBO NSW 2830,Dubbo,NSW,2830,-32.250197,148.6028691,,,http://www.baptistcare.org.au,,,Free,fed_emergency_relief,Emergency Relief Provider Outlets,Department of Social Services,federal,CC-BY-3.0-AU,https://data.gov.au/data/dataset/d667403f-2016-463f-bb0a-3087ae67c57f,2026-04-19,complete
fed_emergency_relief_0099,Bradaag,Emergency relief provider operated by Barkly Region Alcohol and Drug Abuse Advisory Group (BRADAAG),financial,29 Staunton St Tennant Creek NT 0860,Tennant Creek,NT,0860,-19.653736,134.193816,,,http://www.bradaag.org.au,,,Free,fed_emergency_relief,Emergency Relief Provider Outlets,Department of Social Services,federal,CC-BY-3.0-AU,https://data.gov.au/data/dataset/d667403f-2016-463f-bb0a-3087ae67c57f,2026-04-19,complete
fed_emergency_relief_0100,Barkly Regional Council,Emergency relief provider operated by BARKLY REGIONAL COUNCIL,financial,"41 Peko Road, TENNANT CREEK, NT, 0860",Tennant Creek,NT,0860,-19.645556,134.196088,,,http://www.barkly.nt.gov.au,,,Free,fed_emergency_relief,Emergency Relief Provider Outlets,Department of Social Services,federal,CC-BY-3.0-AU,https://data.gov.au/data/dataset/d667403f-2016-463f-bb0a-3087ae67c57f,2026-04-19,complete
fed_emergency_relief_0101,BCH COWES COMMUNITY HEALTH,Emergency relief provider operated by Bass Coast Health,financial,14 Warley Avenue COWES VIC 3922,Cowes,VIC,3922,-38.4495209,145.2372188,,,http://www.basscoasthealth.org.au,,,Free,fed_emergency_relief,Emergency Relief Provider Outlets,Department of Social Services,federal,CC-BY-3.0-AU,https://data.gov.au/data/dataset/d667403f-2016-463f-bb0a-3087ae67c57f,2026-04-19,complete
fed_emergency_relief_0102,BCH SAN REMO COMMUNITY HEALTH,Emergency relief provider operated by Bass Coast Health,financial,1 Back Beach Road SAN REMO VIC 3925,San Remo,VIC,3925,-38.5266245,145.3716086,,,http://www.basscoasthealth.org.au,,,Free,fed_emergency_relief,Emergency Relief Provider Outlets,Department of Social Services,federal,CC-BY-3.0-AU,https://data.gov.au/data/dataset/d667403f-2016-463f-bb0a-3087ae67c57f,2026-04-19,complete
fed_emergency_relief_0103,Family Resource Centre,Emergency relief provider operated by Bass Coast Health,financial,Grahan Street WONTHAGGI VIC 3995,Wonthaggi,VIC,3995,-38.6061524,145.5902102,,,http://www.basscoasthealth.org.au,,,Free,fed_emergency_relief,Emergency Relief Provider Outlets,Department of Social Services,federal,CC-BY-3.0-AU,https://data.gov.au/data/dataset/d667403f-2016-463f-bb0a-3087ae67c57f,2026-04-19,complete
fed_emergency_relief_0104,Foodbowl,Emergency relief provider operated by Bathurst Local Aboriginal Land Council,financial,29 William St BATHURST NSW 2795,Bathurst,NSW,2795,-33.4151778,149.5837554,,,,,,Free,fed_emergency_relief,Emergency Relief Provider Outlets,Department of Social Services,federal,CC-BY-3.0-AU,https://data.gov.au/data/dataset/d667403f-2016-463f-bb0a-3087ae67c57f,2026-04-19,partial
fed_emergency_relief_0105,Bay City Church Arncliffe Foodcare,Emergency relief provider operated by Bay City Care,financial,7 Hattersley Street ARNCLIFFE NSW 2216,Arncliffe,NSW,2216,-33.9413239,151.1444121,,,http://www.baycitycare.com.au,,,Free,fed_emergency_relief,Emergency Relief Provider Outlets,Department of Social Services,federal,CC-BY-3.0-AU,https://data.gov.au/data/dataset/d667403f-2016-463f-bb0a-3087ae67c57f,2026-04-19,complete
fed_emergency_relief_0106,Bay City Care Community Support & Counselling Cent,Emergency relief provider operated by Bay City Care,financial,Shop 4 39-45 George St ROCKDALE NSW 2216,Rockdale,NSW,2216,-33.9518293,151.1403885,,,http://www.baycitycare.com.au,,,Free,fed_emergency_relief,Emergency Relief Provider Outlets,Department of Social Services,federal,CC-BY-3.0-AU,https://data.gov.au/data/dataset/d667403f-2016-463f-bb0a-3087ae67c57f,2026-04-19,complete
fed_emergency_relief_0107,Beechworth Community Support,Emergency relief provider operated by Beechworth Neighborhood Centre Inc,financial,30 Ford St BEECHWORTH VIC 3747,Beechworth,VIC,3747,-36.361309,146.6850037,,,,,,Free,fed_emergency_relief,Emergency Relief Provider Outlets,Department of Social Services,federal,CC-BY-3.0-AU,https://data.gov.au/data/dataset/d667403f-2016-463f-bb0a-3087ae67c57f,2026-04-19,partial
fed_emergency_relief_0108,Belyuen Community Government Council,Emergency relief provider operated by Belyuen Community Government Council,financial,Cox Peninsula Road BELYUEN NT 0822,Belyuen,NT,0822,-12.5486043,130.6936383,,,http://www.nt.gov.au/shirenet/belyuen,,,Free,fed_emergency_relief,Emergency Relief Provider Outlets,Department of Social Services,federal,CC-BY-3.0-AU,https://data.gov.au/data/dataset/d667403f-2016-463f-bb0a-3087ae67c57f,2026-04-19,complete
fed_emergency_relief_0109,Bestchance Child Family Care,Emergency relief provider operated by Bestchance Child Family Care,financial,583 Ferntree Gully Road GLEN WAVERLEY VIC 3150,Glen Waverley,VIC,3150,-37.9029714,145.1587546,,,http://www.bestchance.org.au/,,,Free,fed_emergency_relief,Emergency Relief Provider Outlets,Department of Social Services,federal,CC-BY-3.0-AU,https://data.gov.au/data/dataset/d667403f-2016-463f-bb0a-3087ae67c57f,2026-04-19,complete
fed_emergency_relief_0110,Bethany Community Support Inc,Emergency relief provider operated by Bethany Community Support Inc,financial,16 Ballarat Road HAMLYN HEIGHTS VIC 3215,Hamlyn Heights,VIC,3215,-38.1291189,144.3408968,,,http://www.bethany.org.au,,,Free,fed_emergency_relief,Emergency Relief Provider Outlets,Department of Social Services,federal,CC-BY-3.0-AU,https://data.gov.au/data/dataset/d667403f-2016-463f-bb0a-3087ae67c57f,2026-04-19,complete
fed_emergency_relief_0111,Bethany Community Support Inc.,Emergency relief provider operated by Bethany Community Support Inc,financial,Shop 10 24-36 Fairy St Warrnambool VIC 3280,Warrnambool,VIC,3280,-38.3854041,142.4774242,,,http://www.bethany.org.au,,,Free,fed_emergency_relief,Emergency Relief Provider Outlets,Department of Social Services,federal,CC-BY-3.0-AU,https://data.gov.au/data/dataset/d667403f-2016-463f-bb0a-3087ae67c57f,2026-04-19,complete
fed_emergency_relief_0112,Biripi Aboriginal Corporation Medical Centre,Emergency relief provider operated by Biripi Aboriginal Corporation Medical Centre,financial,2 Edwards Dr PURFLEET NSW 2430,Purfleet,NSW,2430,-31.940564,152.4699533,,,,,,Free,fed_emergency_relief,Emergency Relief Provider Outlets,Department of Social Services,federal,CC-BY-3.0-AU,https://data.gov.au/data/dataset/d667403f-2016-463f-bb0a-3087ae67c57f,2026-04-19,partial
fed_emergency_relief_0113,Bowen Community Council Inc,Emergency relief provider operated by Bowen Community Council Incorporated,financial,20 Williams St BOWEN QLD 4805,Bowen,QLD,4805,-20.0120678,148.2481188,,,http://www.bowenneighbourhoodcentre.org.au/about-bowen-neighbourhood-centre,,,Free,fed_emergency_relief,Emergency Relief Provider Outlets,Department of Social Services,federal,CC-BY-3.0-AU,https://data.gov.au/data/dataset/d667403f-2016-463f-bb0a-3087ae67c57f,2026-04-19,complete
fed_emergency_relief_0114,Bribie Island & District,Emergency relief provider operated by Bribie Island & District Neighbourhood Centre,financial,Lot 131 9 Verdoni Street BELLARA QLD 4507,Bellara,QLD,4507,-27.0642768,153.1529085,,,,,,Free,fed_emergency_relief,Emergency Relief Provider Outlets,Department of Social Services,federal,CC-BY-3.0-AU,https://data.gov.au/data/dataset/d667403f-2016-463f-bb0a-3087ae67c57f,2026-04-19,partial
fed_emergency_relief_0115,Brighton Church of Christ Community Care Inc,Emergency relief provider operated by Brighton Church of Christ Community Care Centre Inc,financial,69 Sturt Road Brighton SA 5048,Brighton,SA,5048,-35.0190752,138.5312998,,,,,,Free,fed_emergency_relief,Emergency Relief Provider Outlets,Department of Social Services,federal,CC-BY-3.0-AU,https://data.gov.au/data/dataset/d667403f-2016-463f-bb0a-3087ae67c57f,2026-04-19,partial
fed_emergency_relief_0116,Brisbane Youth Service,Emergency relief provider operated by Brisbane Youth Service Inc,financial,42 McLachlan St FORTITUDE VALLEY QLD 4006,Fortitude Valley,QLD,4006,-27.4581552,153.0361648,,,http://www.brisyouth.org,,,Free,fed_emergency_relief,Emergency Relief Provider Outlets,Department of Social Services,federal,CC-BY-3.0-AU,https://data.gov.au/data/dataset/d667403f-2016-463f-bb0a-3087ae67c57f,2026-04-19,complete
fed_emergency_relief_0117,BWNG Inc. ERP,Emergency relief provider operated by Bucketts Way Neighbourhood Group Inc,financial,14 Queen Street Gloucester NSW 2422,Gloucester,NSW,2422,-32.0057657,151.96008,,,http://www.bwng.org.au,,,Free,fed_emergency_relief,Emergency Relief Provider Outlets,Department of Social Services,federal,CC-BY-3.0-AU,https://data.gov.au/data/dataset/d667403f-2016-463f-bb0a-3087ae67c57f,2026-04-19,complete
fed_emergency_relief_0118,Bbrg,Emergency relief provider operated by Bundaberg Area Youth Service Inc,financial,46-48 Maryborough Street BUNDABERG QLD 4670,Bundaberg,QLD,4670,-24.8763467,152.3501376,,,,,,Free,fed_emergency_relief,Emergency Relief Provider Outlets,Department of Social Services,federal,CC-BY-3.0-AU,https://data.gov.au/data/dataset/d667403f-2016-463f-bb0a-3087ae67c57f,2026-04-19,partial
fed_emergency_relief_0119,Childers Neighbourhood Centre,Emergency relief provider operated by Bundaberg Regional Council,financial,69 Churchill Street CHILDERS QLD 4660,Childers,QLD,4660,-25.2361802,152.2775037,,,http://www.bundaberg.qld.gov.au,,,Free,fed_emergency_relief,Emergency Relief Provider Outlets,Department of Social Services,federal,CC-BY-3.0-AU,https://data.gov.au/data/dataset/d667403f-2016-463f-bb0a-3087ae67c57f,2026-04-19,complete
fed_emergency_relief_0120,Bunjum Aboriginal Cooperative Limited,Emergency relief provider operated by Bunjum Aboriginal Co Op Ltd,financial,44 Tamar Street Ballina NSW 2478,Ballina,NSW,2478,-28.8707906,153.5634569,,,,,,Free,fed_emergency_relief,Emergency Relief Provider Outlets,Department of Social Services,federal,CC-BY-3.0-AU,https://data.gov.au/data/dataset/d667403f-2016-463f-bb0a-3087ae67c57f,2026-04-19,partial
fed_emergency_relief_0121,Burragah Aboriginal and Islander Advancement Cooperative Society Ltd,Emergency relief provider operated by BURRAGAH ABORIGINAL & ISLANDER ADVANCEMENT CO-OPERATIVE SOCIETY LTD,financial,"25 Jacaranda Ave, WOODRIDGE, QLD, 4114",Woodridge,QLD,4114,-27.643662,153.10565,,,,,,Free,fed_emergency_relief,Emergency Relief Provider Outlets,Department of Social Services,federal,CC-BY-3.0-AU,https://data.gov.au/data/dataset/d667403f-2016-463f-bb0a-3087ae67c57f,2026-04-19,partial
fed_emergency_relief_0122,Caboolture Community Care Incorporated,Emergency relief provider operated by Caboolture Community Care Incorporated,financial,"Lot 292, 9 George Street CABOOLTURE QLD 4510",Caboolture,QLD,4510,-27.0837139,152.9491335,,,http://www.caboolturecommunitycare.org.au,,,Free,fed_emergency_relief,Emergency Relief Provider Outlets,Department of Social Services,federal,CC-BY-3.0-AU,https://data.gov.au/data/dataset/d667403f-2016-463f-bb0a-3087ae67c57f,2026-04-19,complete
fed_emergency_relief_0123,Caloundra,Emergency relief provider operated by Caloundra Community Centre Incorporated,financial,58A Queen Street CALOUNDRA QLD 4551,Caloundra,QLD,4551,-26.8000398,153.1231742,,,http://caloundracc.scc-cooperative.org/,,,Free,fed_emergency_relief,Emergency Relief Provider Outlets,Department of Social Services,federal,CC-BY-3.0-AU,https://data.gov.au/data/dataset/d667403f-2016-463f-bb0a-3087ae67c57f,2026-04-19,complete
fed_emergency_relief_0124,PAKENHAM,Emergency relief provider operated by Cardinia Combined Churches Caring Inc.,financial,5/114 Princes Hwy PAKENHAM VIC 3810,Pakenham,VIC,3810,-38.0694764,145.4762437,,,http://www.the4cs.org.au,,,Free,fed_emergency_relief,Emergency Relief Provider Outlets,Department of Social Services,federal,CC-BY-3.0-AU,https://data.gov.au/data/dataset/d667403f-2016-463f-bb0a-3087ae67c57f,2026-04-19,complete
fed_emergency_relief_0125,Care Goondiwindi Assoc. Inc,Emergency relief provider operated by CARE Goondiwindi Association Inc,financial,56 Marshall Street GOONDIWINDI QLD 4390,Goondiwindi,QLD,4390,-28.5469806,150.3045258,,,http://www.caregoondiwindi.org.au,,,Free,fed_emergency_relief,Emergency Relief Provider Outlets,Department of Social Services,federal,CC-BY-3.0-AU,https://data.gov.au/data/dataset/d667403f-2016-463f-bb0a-3087ae67c57f,2026-04-19,complete
fed_emergency_relief_0126,Darwin Office,Emergency relief provider operated by Carers N.T. Incorporated,financial,59 Bayview Boulavard BAYVIEW NT 0820,Bayview,NT,0820,-12.4415506,130.8590757,,,http://www.carersnt.asn.au,,,Free,fed_emergency_relief,Emergency Relief Provider Outlets,Department of Social Services,federal,CC-BY-3.0-AU,https://data.gov.au/data/dataset/d667403f-2016-463f-bb0a-3087ae67c57f,2026-04-19,complete
fed_emergency_relief_0127,Katherine Office,Emergency relief provider operated by Carers N.T. Incorporated,financial,Unit 1 17 First Street KATHERINE NT 0850,Katherine,NT,0850,-14.4637274,132.2641573,,,http://www.carersnt.asn.au,,,Free,fed_emergency_relief,Emergency Relief Provider Outlets,Department of Social Services,federal,CC-BY-3.0-AU,https://data.gov.au/data/dataset/d667403f-2016-463f-bb0a-3087ae67c57f,2026-04-19,complete
fed_emergency_relief_0128,Alice Springs Office,Emergency relief provider operated by Carers N.T. Incorporated,financial,Suite 2a 40 Bath Street ALICE SPRINGS NT 0870,Alice Springs,NT,0870,-23.6986415,133.8798616,,,http://www.carersnt.asn.au,,,Free,fed_emergency_relief,Emergency Relief Provider Outlets,Department of Social Services,federal,CC-BY-3.0-AU,https://data.gov.au/data/dataset/d667403f-2016-463f-bb0a-3087ae67c57f,2026-04-19,complete
fed_emergency_relief_0129,Doveton Baptist Benevolent Society,Emergency relief provider operated by Casey North Community Information and Support Service Inc,financial,123-127 Kidds Road DOVETON VIC 3177,Doveton,VIC,3177,-37.9877788,145.2385744,,,http://www.caseynorthciss.com.au,,,Free,fed_emergency_relief,Emergency Relief Provider Outlets,Department of Social Services,federal,CC-BY-3.0-AU,https://data.gov.au/data/dataset/d667403f-2016-463f-bb0a-3087ae67c57f,2026-04-19,complete
fed_emergency_relief_0130,Endeavour Ministries Inc,Emergency relief provider operated by Casey North Community Information and Support Service Inc,financial,2-6 Hanna Drive The Andrews Centre ENDEAVOUR HILLS VIC 3802,Endeavour Hills,VIC,3802,-37.9759311,145.2709527,,,http://www.caseynorthciss.com.au,,,Free,fed_emergency_relief,Emergency Relief Provider Outlets,Department of Social Services,federal,CC-BY-3.0-AU,https://data.gov.au/data/dataset/d667403f-2016-463f-bb0a-3087ae67c57f,2026-04-19,complete
fed_emergency_relief_0131,Casey North CISS,Emergency relief provider operated by Casey North Community Information and Support Service Inc,financial,1/90 Victor Cres Narre Warren VIC 3805,Narre Warren,VIC,3805,-38.0255413,145.3137266,,,http://www.caseynorthciss.com.au,,,Free,fed_emergency_relief,Emergency Relief Provider Outlets,Department of Social Services,federal,CC-BY-3.0-AU,https://data.gov.au/data/dataset/d667403f-2016-463f-bb0a-3087ae67c57f,2026-04-19,complete
fed_emergency_relief_0132,Cranbourne ISS,Emergency relief provider operated by Casey North Community Information and Support Service Inc,financial,156-158 Sladen St CRANBOURNE VIC 3977,Cranbourne,VIC,3977,-38.1135383,145.282426,,,http://www.caseynorthciss.com.au,,,Free,fed_emergency_relief,Emergency Relief Provider Outlets,Department of Social Services,federal,CC-BY-3.0-AU,https://data.gov.au/data/dataset/d667403f-2016-463f-bb0a-3087ae67c57f,2026-04-19,complete
fed_emergency_relief_0133,CatholicCare Diocese of Broken Bay - Naremburn,Emergency relief provider operated by CatholicCare Diocese of Broken Bay,financial,40 Merrenburn Avenue NAREMBURN NSW 2065,Naremburn,NSW,2065,-33.819117,151.2016644,,,http://www.centacarebrokenbay.org.au,,,Free,fed_emergency_relief,Emergency Relief Provider Outlets,Department of Social Services,federal,CC-BY-3.0-AU,https://data.gov.au/data/dataset/d667403f-2016-463f-bb0a-3087ae67c57f,2026-04-19,complete
fed_emergency_relief_0134,CatholicCare Diocese of Broken Bay - Waitara,Emergency relief provider operated by CatholicCare Diocese of Broken Bay,financial,29 Yardley Avenue WAITARA NSW 2077,Waitara,NSW,2077,-33.7136942,151.1036806,,,http://www.centacarebrokenbay.org.au,,,Free,fed_emergency_relief,Emergency Relief Provider Outlets,Department of Social Services,federal,CC-BY-3.0-AU,https://data.gov.au/data/dataset/d667403f-2016-463f-bb0a-3087ae67c57f,2026-04-19,complete
fed_emergency_relief_0135,CatholicCare Diocese of Broken Bay - Brookvale,Emergency relief provider operated by CatholicCare Diocese of Broken Bay,financial,Unit 9B 44 Wattle Road BROOKVALE NSW 2100,Brookvale,NSW,2100,-33.7673372,151.2744348,,,http://www.centacarebrokenbay.org.au,,,Free,fed_emergency_relief,Emergency Relief Provider Outlets,Department of Social Services,federal,CC-BY-3.0-AU,https://data.gov.au/data/dataset/d667403f-2016-463f-bb0a-3087ae67c57f,2026-04-19,complete
fed_emergency_relief_0136,CatholicCare Diocese of Broken Bay,Emergency relief provider operated by CatholicCare Diocese of Broken Bay,financial,Level 7 Bld 2 423 Pennant Hills Rd PENNANT HILLS NSW 2120,Pennant Hills,NSW,2120,-33.7398259,151.0692528,,,http://www.centacarebrokenbay.org.au,,,Free,fed_emergency_relief,Emergency Relief Provider Outlets,Department of Social Services,federal,CC-BY-3.0-AU,https://data.gov.au/data/dataset/d667403f-2016-463f-bb0a-3087ae67c57f,2026-04-19,complete
fed_emergency_relief_0137,CatholicCare Diocese of Broken Bay - Central Coast,Emergency relief provider operated by CatholicCare Diocese of Broken Bay,financial,Level 1 Warnervale Superclinic 3 Mary Mackillop Drive WOONGARRAH NSW 2259,Woongarrah,NSW,2259,-33.2418188,151.4692544,,,http://www.centacarebrokenbay.org.au,,,Free,fed_emergency_relief,Emergency Relief Provider Outlets,Department of Social Services,federal,CC-BY-3.0-AU,https://data.gov.au/data/dataset/d667403f-2016-463f-bb0a-3087ae67c57f,2026-04-19,complete
fed_emergency_relief_0138,CatholicCare NT,Emergency relief provider operated by CatholicCare NT,financial,17 Hidden Valley Road BERRIMAH NT 0828,Berrimah,NT,0828,-12.4354056,130.9174084,,,http://www.catholiccarent.org.au,,,Free,fed_emergency_relief,Emergency Relief Provider Outlets,Department of Social Services,federal,CC-BY-3.0-AU,https://data.gov.au/data/dataset/d667403f-2016-463f-bb0a-3087ae67c57f,2026-04-19,complete
fed_emergency_relief_0139,CatholicCare NT- Palmerston,Emergency relief provider operated by CatholicCare NT,financial,Shop 10b Goyder Building PALMERSTON NT 0830,Palmerston,NT,0830,-12.480039,130.983195,,,http://www.catholiccarent.org.au,,,Free,fed_emergency_relief,Emergency Relief Provider Outlets,Department of Social Services,federal,CC-BY-3.0-AU,https://data.gov.au/data/dataset/d667403f-2016-463f-bb0a-3087ae67c57f,2026-04-19,complete
fed_emergency_relief_0140,CatholicCare NT - Katherine,Emergency relief provider operated by CatholicCare NT,financial,Cnr Giles & First Streets KATHERINE NT 0850,Katherine,NT,0850,-14.464494,132.2644327,,,http://www.catholiccarent.org.au,,,Free,fed_emergency_relief,Emergency Relief Provider Outlets,Department of Social Services,federal,CC-BY-3.0-AU,https://data.gov.au/data/dataset/d667403f-2016-463f-bb0a-3087ae67c57f,2026-04-19,complete
fed_emergency_relief_0141,CatholicCare NT - Tennant Creek,Emergency relief provider operated by CatholicCare NT,financial,42 Paterson St TENNANT CREEK NT 0860,Tennant Creek,NT,0860,-19.648884,134.190447,,,http://www.catholiccarent.org.au,,,Free,fed_emergency_relief,Emergency Relief Provider Outlets,Department of Social Services,federal,CC-BY-3.0-AU,https://data.gov.au/data/dataset/d667403f-2016-463f-bb0a-3087ae67c57f,2026-04-19,complete
fed_emergency_relief_0142,CatholicCare NT - Alice Springs,Emergency relief provider operated by CatholicCare NT,financial,6 Hartley St ALICE SPRINGS NT 0870,Alice Springs,NT,0870,-23.696693,133.882249,,,http://www.catholiccarent.org.au,,,Free,fed_emergency_relief,Emergency Relief Provider Outlets,Department of Social Services,federal,CC-BY-3.0-AU,https://data.gov.au/data/dataset/d667403f-2016-463f-bb0a-3087ae67c57f,2026-04-19,complete
fed_emergency_relief_0143,AspleyCare,Emergency relief provider operated by Centacare Brisbane,financial,"Lot 1, 479 Robinson Road West ASPLEY QLD 4034",Aspley,QLD,4034,-27.3653209,153.0336401,,,http://centacarebrisbane.net.au/,,,Free,fed_emergency_relief,Emergency Relief Provider Outlets,Department of Social Services,federal,CC-BY-3.0-AU,https://data.gov.au/data/dataset/d667403f-2016-463f-bb0a-3087ae67c57f,2026-04-19,complete
fed_emergency_relief_0144,Beaudesert St Mary's Care and Concern,Emergency relief provider operated by Centacare Brisbane,financial,6-12 Peterson Street Centacare St Mary's Community Services BEAUDESERT QLD 4285,Beaudesert,QLD,4285,-27.974198,152.9898279,,,http://centacarebrisbane.net.au/,,,Free,fed_emergency_relief,Emergency Relief Provider Outlets,Department of Social Services,federal,CC-BY-3.0-AU,https://data.gov.au/data/dataset/d667403f-2016-463f-bb0a-3087ae67c57f,2026-04-19,complete
fed_emergency_relief_0145,Centacare Brisbane - Kingaroy,Emergency relief provider operated by Centacare Brisbane,financial,15 Albert St KINGAROY QLD 4610,Kingaroy,QLD,4610,-26.53694,151.8410134,,,http://centacarebrisbane.net.au/,,,Free,fed_emergency_relief,Emergency Relief Provider Outlets,Department of Social Services,federal,CC-BY-3.0-AU,https://data.gov.au/data/dataset/d667403f-2016-463f-bb0a-3087ae67c57f,2026-04-19,complete
fed_emergency_relief_0146,Centacare Brisbane - Fraser Coast,Emergency relief provider operated by Centacare Brisbane,financial,6/152 Boat Harbour Drive HERVEY BAY QLD 4655,Hervey Bay,QLD,4655,-25.2870035,152.8353149,,,http://centacarebrisbane.net.au/,,,Free,fed_emergency_relief,Emergency Relief Provider Outlets,Department of Social Services,federal,CC-BY-3.0-AU,https://data.gov.au/data/dataset/d667403f-2016-463f-bb0a-3087ae67c57f,2026-04-19,complete
fed_emergency_relief_0147,Hambledon House Community Centre,Emergency relief provider operated by Centacare Cairns,financial,177 Bruce Highway EDMONTON QLD 4869,Edmonton,QLD,4869,-17.017138,145.7436809,,,http://www.centacarecairns.org/,,,Free,fed_emergency_relief,Emergency Relief Provider Outlets,Department of Social Services,federal,CC-BY-3.0-AU,https://data.gov.au/data/dataset/d667403f-2016-463f-bb0a-3087ae67c57f,2026-04-19,complete
fed_emergency_relief_0148,Centacare Cairns,Emergency relief provider operated by Centacare Cairns,financial,"Lot 2, 22-28 Aplin St CAIRNS CITY QLD 4870",Cairns City,QLD,4870,-16.9213044,145.7727523,,,http://www.centacarecairns.org/,,,Free,fed_emergency_relief,Emergency Relief Provider Outlets,Department of Social Services,federal,CC-BY-3.0-AU,https://data.gov.au/data/dataset/d667403f-2016-463f-bb0a-3087ae67c57f,2026-04-19,complete
fed_emergency_relief_0149,Port Lincoln,Emergency relief provider operated by Centacare Catholic Family Services Country SA,financial,32 Mortlock Terrace PORT LINCOLN SA 5606,Port Lincoln,SA,5606,-34.7291965,135.8564644,,,http://www.centacarecdpp.org.au/,,,Free,fed_emergency_relief,Emergency Relief Provider Outlets,Department of Social Services,federal,CC-BY-3.0-AU,https://data.gov.au/data/dataset/d667403f-2016-463f-bb0a-3087ae67c57f,2026-04-19,complete
fed_emergency_relief_0150,Whyalla,Emergency relief provider operated by Centacare Catholic Family Services Country SA,financial,26 Head St WHYALLA STUART SA 5608,Whyalla Stuart,SA,5608,-33.0200278,137.5280242,,,http://www.centacarecdpp.org.au/,,,Free,fed_emergency_relief,Emergency Relief Provider Outlets,Department of Social Services,federal,CC-BY-3.0-AU,https://data.gov.au/data/dataset/d667403f-2016-463f-bb0a-3087ae67c57f,2026-04-19,complete
fed_emergency_relief_0151,Wudinna,Emergency relief provider operated by Centacare Catholic Family Services Country SA,financial,14-24 Richards Ave WUDINNA SA 5652,Wudinna,SA,5652,-33.0502609,135.4671387,,,http://www.centacarecdpp.org.au/,,,Free,fed_emergency_relief,Emergency Relief Provider Outlets,Department of Social Services,federal,CC-BY-3.0-AU,https://data.gov.au/data/dataset/d667403f-2016-463f-bb0a-3087ae67c57f,2026-04-19,complete
fed_emergency_relief_0152,Ceduna,Emergency relief provider operated by Centacare Catholic Family Services Country SA,financial,11 McKenzie St CEDUNA SA 5690,Ceduna,SA,5690,-32.12576,133.6748881,,,http://www.centacarecdpp.org.au/,,,Free,fed_emergency_relief,Emergency Relief Provider Outlets,Department of Social Services,federal,CC-BY-3.0-AU,https://data.gov.au/data/dataset/d667403f-2016-463f-bb0a-3087ae67c57f,2026-04-19,complete
fed_emergency_relief_0153,FRC Ceduna,Emergency relief provider operated by Centacare Catholic Family Services Country SA,financial,11 McKenzie Street Ceduna SA 5690,Ceduna,SA,5690,-32.12576,133.6748881,,,http://www.centacarecdpp.org.au/,,,Free,fed_emergency_relief,Emergency Relief Provider Outlets,Department of Social Services,federal,CC-BY-3.0-AU,https://data.gov.au/data/dataset/d667403f-2016-463f-bb0a-3087ae67c57f,2026-04-19,complete
fed_emergency_relief_0154,Port Augusta,Emergency relief provider operated by Centacare Catholic Family Services Country SA,financial,6 Gibson St PORT AUGUSTA SA 5700,Port Augusta,SA,5700,-32.4927707,137.7607095,,,http://www.centacarecdpp.org.au/,,,Free,fed_emergency_relief,Emergency Relief Provider Outlets,Department of Social Services,federal,CC-BY-3.0-AU,https://data.gov.au/data/dataset/d667403f-2016-463f-bb0a-3087ae67c57f,2026-04-19,complete
fed_emergency_relief_0155,Broome,Emergency relief provider operated by Centacare Kimberley,financial,25 Robinson Street Broome WA 6725,Broome,WA,6725,-17.95987,122.23774,,,http://centacarekimberley.org.au/,,,Free,fed_emergency_relief,Emergency Relief Provider Outlets,Department of Social Services,federal,CC-BY-3.0-AU,https://data.gov.au/data/dataset/d667403f-2016-463f-bb0a-3087ae67c57f,2026-04-19,complete
fed_emergency_relief_0156,Homeless Breakfast,Emergency relief provider operated by Centacare Kimberley,financial,27 Robinson Street Broome WA 6725,Broome,WA,6725,-17.96023,122.23802,,,http://centacarekimberley.org.au/,,,Free,fed_emergency_relief,Emergency Relief Provider Outlets,Department of Social Services,federal,CC-BY-3.0-AU,https://data.gov.au/data/dataset/d667403f-2016-463f-bb0a-3087ae67c57f,2026-04-19,complete
fed_emergency_relief_0157,Derby,Emergency relief provider operated by Centacare Kimberley,financial,25 Stanley Street Derby WA 6728,Derby,WA,6728,-17.30728,123.64047,,,http://centacarekimberley.org.au/,,,Free,fed_emergency_relief,Emergency Relief Provider Outlets,Department of Social Services,federal,CC-BY-3.0-AU,https://data.gov.au/data/dataset/d667403f-2016-463f-bb0a-3087ae67c57f,2026-04-19,complete
fed_emergency_relief_0158,Wyndham,Emergency relief provider operated by Centacare Kimberley,financial,56 Great Northern Highway Wyndham WA 6740,Wyndham,WA,6740,-15.48712,128.1218,,,http://centacarekimberley.org.au/,,,Free,fed_emergency_relief,Emergency Relief Provider Outlets,Department of Social Services,federal,CC-BY-3.0-AU,https://data.gov.au/data/dataset/d667403f-2016-463f-bb0a-3087ae67c57f,2026-04-19,complete
fed_emergency_relief_0159,Kununurra,Emergency relief provider operated by Centacare Kimberley,financial,7 Leichhardt St KUNUNURRA WA 6743,Kununurra,WA,6743,-15.77035,128.74063,,,http://centacarekimberley.org.au/,,,Free,fed_emergency_relief,Emergency Relief Provider Outlets,Department of Social Services,federal,CC-BY-3.0-AU,https://data.gov.au/data/dataset/d667403f-2016-463f-bb0a-3087ae67c57f,2026-04-19,complete
fed_emergency_relief_0160,Balgo,Emergency relief provider operated by Centacare Kimberley,financial,1 Balgo Street Kutjungka Catholic parish TANAMI WA 6770,Tanami,WA,6770,-20.0243176,128.1103865,,,http://centacarekimberley.org.au/,,,Free,fed_emergency_relief,Emergency Relief Provider Outlets,Department of Social Services,federal,CC-BY-3.0-AU,https://data.gov.au/data/dataset/d667403f-2016-463f-bb0a-3087ae67c57f,2026-04-19,complete
fed_emergency_relief_0161,Centacare New England North West - Narrabri,Emergency relief provider operated by Centacare New England North West,financial,Unit 1 116 Barwan St NARRABRI NSW 2390,Narrabri,NSW,2390,-30.3218871,149.7832253,,,http://www.centacarenenw.com.au,,,Free,fed_emergency_relief,Emergency Relief Provider Outlets,Department of Social Services,federal,CC-BY-3.0-AU,https://data.gov.au/data/dataset/d667403f-2016-463f-bb0a-3087ae67c57f,2026-04-19,complete
fed_emergency_relief_0162,Centacare New England North West - Moree,Emergency relief provider operated by Centacare New England North West,financial,48 Auburn Street MOREE NSW 2400,Moree,NSW,2400,-29.4647502,149.8405922,,,http://www.centacarenenw.com.au,,,Free,fed_emergency_relief,Emergency Relief Provider Outlets,Department of Social Services,federal,CC-BY-3.0-AU,https://data.gov.au/data/dataset/d667403f-2016-463f-bb0a-3087ae67c57f,2026-04-19,complete
fed_emergency_relief_0163,Centacare New England North West Walgett,Emergency relief provider operated by Centacare New England North West,financial,84 Wee Waa Street WALGETT NSW 2832,Walgett,NSW,2832,-30.0211143,148.1156445,,,http://www.centacarenenw.com.au,,,Free,fed_emergency_relief,Emergency Relief Provider Outlets,Department of Social Services,federal,CC-BY-3.0-AU,https://data.gov.au/data/dataset/d667403f-2016-463f-bb0a-3087ae67c57f,2026-04-19,complete
fed_emergency_relief_0164,Central Agcare Inc,Emergency relief provider operated by Central Agcare Incorporated,financial,Kirkwood street CORRIGIN WA 6375,Corrigin,WA,6375,-32.3291132,117.8781443,,,,,,Free,fed_emergency_relief,Emergency Relief Provider Outlets,Department of Social Services,federal,CC-BY-3.0-AU,https://data.gov.au/data/dataset/d667403f-2016-463f-bb0a-3087ae67c57f,2026-04-19,partial
fed_emergency_relief_0165,Central Australian Aboriginal Congress,Emergency relief provider operated by Central Australian Aboriginal Congress,financial,14 Leichhardt Terrace ALICE SPRINGS NT 0871,Alice Springs,NT,0871,-23.700335,133.883657,,,,,,Free,fed_emergency_relief,Emergency Relief Provider Outlets,Department of Social Services,federal,CC-BY-3.0-AU,https://data.gov.au/data/dataset/d667403f-2016-463f-bb0a-3087ae67c57f,2026-04-19,partial
fed_emergency_relief_0166,Centrecare Inc,Emergency relief provider operated by Centrecare Inc,financial,456 Hay Street PERTH WA 6000,Perth,WA,6000,-31.95592,115.86506,,,http://www.centrecare.com.au/,,,Free,fed_emergency_relief,Emergency Relief Provider Outlets,Department of Social Services,federal,CC-BY-3.0-AU,https://data.gov.au/data/dataset/d667403f-2016-463f-bb0a-3087ae67c57f,2026-04-19,complete
fed_emergency_relief_0167,Charters Towers Neighbourhood Centre,Emergency relief provider operated by Charters Towers Neighbourhood Centre Incorporated,financial,3 Powell Lane CHARTERS TOWERS QLD 4820,Charters Towers,QLD,4820,-20.077569,146.2576434,,,http://www.ctnc.org.au,,,Free,fed_emergency_relief,Emergency Relief Provider Outlets,Department of Social Services,federal,CC-BY-3.0-AU,https://data.gov.au/data/dataset/d667403f-2016-463f-bb0a-3087ae67c57f,2026-04-19,complete
fed_emergency_relief_0168,Child & Family Services Ballarat,Emergency relief provider operated by Child & Family Services Ballarat,financial,115 Lydiard St North BALLARAT VIC 3350,Ballarat,VIC,3350,-37.5589557,143.8580528,,,http://www.cafs.org.au,,,Free,fed_emergency_relief,Emergency Relief Provider Outlets,Department of Social Services,federal,CC-BY-3.0-AU,https://data.gov.au/data/dataset/d667403f-2016-463f-bb0a-3087ae67c57f,2026-04-19,complete
fed_emergency_relief_0169,Chinchilla Family Support Centre,Emergency relief provider operated by Chinchilla Family Support Centre Incorporated,financial,67-71 Middle Street CHINCHILLA QLD 4413,Chinchilla,QLD,4413,-26.7429513,150.6272234,,,http://www.cfsc.org.au,,,Free,fed_emergency_relief,Emergency Relief Provider Outlets,Department of Social Services,federal,CC-BY-3.0-AU,https://data.gov.au/data/dataset/d667403f-2016-463f-bb0a-3087ae67c57f,2026-04-19,complete
fed_emergency_relief_0170,Christian Emergency Food Centre Inc,Emergency relief provider operated by Christian Emergency Food Centre Inc.,financial,28 Firebrace St HORSHAM VIC 3400,Horsham,VIC,3400,-36.7126222,142.1994654,,,http://www.cefc.org.au,,,Free,fed_emergency_relief,Emergency Relief Provider Outlets,Department of Social Services,federal,CC-BY-3.0-AU,https://data.gov.au/data/dataset/d667403f-2016-463f-bb0a-3087ae67c57f,2026-04-19,complete
fed_emergency_relief_0171,Clermont Community Housing,Emergency relief provider operated by Clermont Community Housing and Other Services (CCHAOS) Inc.,financial,2 Lime Street CLERMONT QLD 4721,Clermont,QLD,4721,-22.8188525,147.6448252,,,,,,Free,fed_emergency_relief,Emergency Relief Provider Outlets,Department of Social Services,federal,CC-BY-3.0-AU,https://data.gov.au/data/dataset/d667403f-2016-463f-bb0a-3087ae67c57f,2026-04-19,partial
fed_emergency_relief_0172,Townsville,Emergency relief provider operated by Coalition On Criminal Assault In The Home (NQ) Inc,financial,"Mezzanine Floor, Metway Arcade 390 Flinders Street TOWNSVILLE QLD 4810",Townsville,QLD,4810,-19.2610249,146.8163225,,,http://www.nqdvrs.org.au,,,Free,fed_emergency_relief,Emergency Relief Provider Outlets,Department of Social Services,federal,CC-BY-3.0-AU,https://data.gov.au/data/dataset/d667403f-2016-463f-bb0a-3087ae67c57f,2026-04-19,complete
fed_emergency_relief_0173,High St,Emergency relief provider operated by Cobaw Community Health Service,financial,47 High St KYNETON VIC 3437,Kyneton,VIC,3437,-37.2499709,144.4552031,,,http://www.cobaw.org.au,,,Free,fed_emergency_relief,Emergency Relief Provider Outlets,Department of Social Services,federal,CC-BY-3.0-AU,https://data.gov.au/data/dataset/d667403f-2016-463f-bb0a-3087ae67c57f,2026-04-19,complete
fed_emergency_relief_0174,Woodend,Emergency relief provider operated by Cobaw Community Health Service,financial,47 Forest St Woodend VIC 3442,Woodend,VIC,3442,-37.3545945,144.5277495,,,http://www.cobaw.org.au,,,Free,fed_emergency_relief,Emergency Relief Provider Outlets,Department of Social Services,federal,CC-BY-3.0-AU,https://data.gov.au/data/dataset/d667403f-2016-463f-bb0a-3087ae67c57f,2026-04-19,complete
fed_emergency_relief_0175,Housing Connect,Emergency relief provider operated by Colony 47 Inc,financial,3/181 Collins Street Hobart TAS 7000,Hobart,TAS,7000,-42.8854484,147.3237585,,,http://www.colony47.com.au,,,Free,fed_emergency_relief,Emergency Relief Provider Outlets,Department of Social Services,federal,CC-BY-3.0-AU,https://data.gov.au/data/dataset/d667403f-2016-463f-bb0a-3087ae67c57f,2026-04-19,complete
fed_emergency_relief_0176,Colony 47 North,Emergency relief provider operated by Colony 47 Inc,financial,63 Cameron St LAUNCESTON TAS 7250,Launceston,TAS,7250,-41.4356752,147.1381175,,,http://www.colony47.com.au,,,Free,fed_emergency_relief,Emergency Relief Provider Outlets,Department of Social Services,federal,CC-BY-3.0-AU,https://data.gov.au/data/dataset/d667403f-2016-463f-bb0a-3087ae67c57f,2026-04-19,complete
fed_emergency_relief_0177,Communities@Work Emergency Relief Program South,Emergency relief provider operated by Communities@Work,financial,245 Cowlishaw Street Greenway ACT 2900,Greenway,ACT,2900,-35.4156077,149.0695219,,,http://www.commsatwork.org,,,Free,fed_emergency_relief,Emergency Relief Provider Outlets,Department of Social Services,federal,CC-BY-3.0-AU,https://data.gov.au/data/dataset/d667403f-2016-463f-bb0a-3087ae67c57f,2026-04-19,complete
fed_emergency_relief_0178,Communities@Work Emergency Relief Program North,Emergency relief provider operated by Communities@Work,financial,47 Ernest Cavanagh Street GUNGAHLIN ACT 2912,Gungahlin,ACT,2912,-35.1842651,149.1348817,,,http://www.commsatwork.org,,,Free,fed_emergency_relief,Emergency Relief Provider Outlets,Department of Social Services,federal,CC-BY-3.0-AU,https://data.gov.au/data/dataset/d667403f-2016-463f-bb0a-3087ae67c57f,2026-04-19,complete
fed_emergency_relief_0179,Community Accommodation & Support Agency Inc,Emergency relief provider operated by Community Accommodation & Support Agency Inc,financial,4/54 Gregory Street Mackay QLD 4740,Mackay,QLD,4740,-21.1447208,149.1836979,,,http://www.casamackay.org.au,,,Free,fed_emergency_relief,Emergency Relief Provider Outlets,Department of Social Services,federal,CC-BY-3.0-AU,https://data.gov.au/data/dataset/d667403f-2016-463f-bb0a-3087ae67c57f,2026-04-19,complete
fed_emergency_relief_0180,Gympie Community Centreplace,Emergency relief provider operated by Community Action Inc.,financial,"Lot 20, 18 Excelsior Road GYMPIE QLD 4570",Gympie,QLD,4570,-26.1967574,152.6666414,,,http://www.communityactiongympie.com.au,,,Free,fed_emergency_relief,Emergency Relief Provider Outlets,Department of Social Services,federal,CC-BY-3.0-AU,https://data.gov.au/data/dataset/d667403f-2016-463f-bb0a-3087ae67c57f,2026-04-19,complete
fed_emergency_relief_0181,Community Action Youth Service,Emergency relief provider operated by Community Action Inc.,financial,"Lot 717, 24 Lawrence Street GYMPIE QLD 4570",Gympie,QLD,4570,-26.1871369,152.664884,,,http://www.communityactiongympie.com.au,,,Free,fed_emergency_relief,Emergency Relief Provider Outlets,Department of Social Services,federal,CC-BY-3.0-AU,https://data.gov.au/data/dataset/d667403f-2016-463f-bb0a-3087ae67c57f,2026-04-19,complete
fed_emergency_relief_0182,Tin Can Bay Resource & Referral Centre,Emergency relief provider operated by Community Action Inc.,financial,Shop 2 11 Dolphin Ave TIN CAN BAY QLD 4580,Tin Can Bay,QLD,4580,-25.91593,153.0017275,,,http://www.communityactiongympie.com.au,,,Free,fed_emergency_relief,Emergency Relief Provider Outlets,Department of Social Services,federal,CC-BY-3.0-AU,https://data.gov.au/data/dataset/d667403f-2016-463f-bb0a-3087ae67c57f,2026-04-19,complete
fed_emergency_relief_0183,CDS Main Office,Emergency relief provider operated by Community Development Services Inc,financial,"Community Development Service Inc Lot 1, 8 Corundum Street STANTHORPE QLD 4380",Stanthorpe,QLD,4380,-28.6523894,151.9360648,,,http://www.granitenet.com.au/groups/community/cds,,,Free,fed_emergency_relief,Emergency Relief Provider Outlets,Department of Social Services,federal,CC-BY-3.0-AU,https://data.gov.au/data/dataset/d667403f-2016-463f-bb0a-3087ae67c57f,2026-04-19,complete
fed_emergency_relief_0184,CHL Fraser Coast,Emergency relief provider operated by Community Housing Ltd,financial,224 Bazaar Street MARYBOROUGH QLD 4650,Maryborough,QLD,4650,-25.5377334,152.7036545,,,http://www.chl.org.au,,,Free,fed_emergency_relief,Emergency Relief Provider Outlets,Department of Social Services,federal,CC-BY-3.0-AU,https://data.gov.au/data/dataset/d667403f-2016-463f-bb0a-3087ae67c57f,2026-04-19,complete
fed_emergency_relief_0185,Community Information Centre Hobsons Bay,Emergency relief provider operated by Community Information and Support Victoria Inc,financial,5 Sargood Street Altona VIC 3018,Altona,VIC,3018,-37.869652,144.8284774,,,http://www.cisvic.org.au,,,Free,fed_emergency_relief,Emergency Relief Provider Outlets,Department of Social Services,federal,CC-BY-3.0-AU,https://data.gov.au/data/dataset/d667403f-2016-463f-bb0a-3087ae67c57f,2026-04-19,complete
fed_emergency_relief_0186,Coburg Community Information Centre,Emergency relief provider operated by Community Information and Support Victoria Inc,financial,91 Bell Street Coburg VIC 3058,Coburg,VIC,3058,-37.741441,144.965969,,,http://www.cisvic.org.au,,,Free,fed_emergency_relief,Emergency Relief Provider Outlets,Department of Social Services,federal,CC-BY-3.0-AU,https://data.gov.au/data/dataset/d667403f-2016-463f-bb0a-3087ae67c57f,2026-04-19,complete
fed_emergency_relief_0187,Darebin Information Volunteer and Resource Service,Emergency relief provider operated by Community Information and Support Victoria Inc,financial,285 - 287 High Street Preston VIC 3072,Preston,VIC,3072,-37.7434929,145.0028734,,,http://www.cisvic.org.au,,,Free,fed_emergency_relief,Emergency Relief Provider Outlets,Department of Social Services,federal,CC-BY-3.0-AU,https://data.gov.au/data/dataset/d667403f-2016-463f-bb0a-3087ae67c57f,2026-04-19,complete
fed_emergency_relief_0188,Countrywide Community Missions Victoria,Emergency relief provider operated by Community Information and Support Victoria Inc,financial,129 Narina Way Epping VIC 3076,Epping,VIC,3076,-37.656335,145.039028,,,http://www.cisvic.org.au,,,Free,fed_emergency_relief,Emergency Relief Provider Outlets,Department of Social Services,federal,CC-BY-3.0-AU,https://data.gov.au/data/dataset/d667403f-2016-463f-bb0a-3087ae67c57f,2026-04-19,complete
fed_emergency_relief_0189,Whittlesea Community Connections Inc,Emergency relief provider operated by Community Information and Support Victoria Inc,financial,"Shop 111, Cnr Cooper St & High St EPPING VIC 3076",Epping,VIC,3076,-37.6520915,145.0222932,,,http://www.cisvic.org.au,,,Free,fed_emergency_relief,Emergency Relief Provider Outlets,Department of Social Services,federal,CC-BY-3.0-AU,https://data.gov.au/data/dataset/d667403f-2016-463f-bb0a-3087ae67c57f,2026-04-19,complete
fed_emergency_relief_0190,Banyule Support and Information Centre,Emergency relief provider operated by Community Information and Support Victoria Inc,financial,80 Hawdon Street Heidelberg VIC 3084,Heidelberg,VIC,3084,-37.7568896,145.0647045,,,http://www.cisvic.org.au,,,Free,fed_emergency_relief,Emergency Relief Provider Outlets,Department of Social Services,federal,CC-BY-3.0-AU,https://data.gov.au/data/dataset/d667403f-2016-463f-bb0a-3087ae67c57f,2026-04-19,complete
fed_emergency_relief_0191,Diamond Valley Community Support Inc,Emergency relief provider operated by Community Information and Support Victoria Inc,financial,"Shop 378a, Level 3, Greensborough Plaza 25 Main Street GREENSBOROUGH VIC 3088",Greensborough,VIC,3088,-37.7040103,145.1030264,,,http://www.cisvic.org.au,,,Free,fed_emergency_relief,Emergency Relief Provider Outlets,Department of Social Services,federal,CC-BY-3.0-AU,https://data.gov.au/data/dataset/d667403f-2016-463f-bb0a-3087ae67c57f,2026-04-19,complete
fed_emergency_relief_0192,DonCare,Emergency relief provider operated by Community Information and Support Victoria Inc,financial,"Suite 4, Level 1, 687 Doncaster Road Doncaster VIC 3108",Doncaster,VIC,3108,-37.7872119,145.1314361,,,http://www.cisvic.org.au,,,Free,fed_emergency_relief,Emergency Relief Provider Outlets,Department of Social Services,federal,CC-BY-3.0-AU,https://data.gov.au/data/dataset/d667403f-2016-463f-bb0a-3087ae67c57f,2026-04-19,complete
fed_emergency_relief_0193,Camcare,Emergency relief provider operated by Community Information and Support Victoria Inc,financial,51 St Johns Avenue Camberwell VIC 3124,Camberwell,VIC,3124,-37.8350217,145.0625879,,,http://www.cisvic.org.au,,,Free,fed_emergency_relief,Emergency Relief Provider Outlets,Department of Social Services,federal,CC-BY-3.0-AU,https://data.gov.au/data/dataset/d667403f-2016-463f-bb0a-3087ae67c57f,2026-04-19,complete
fed_emergency_relief_0194,Box Hill Citizens Advice Bureau,Emergency relief provider operated by Community Information and Support Victoria Inc,financial,"Suite 1, 27 Bank Street Box Hill VIC 3128",Box Hill,VIC,3128,-37.8196255,145.126611,,,http://www.cisvic.org.au,,,Free,fed_emergency_relief,Emergency Relief Provider Outlets,Department of Social Services,federal,CC-BY-3.0-AU,https://data.gov.au/data/dataset/d667403f-2016-463f-bb0a-3087ae67c57f,2026-04-19,complete
fed_emergency_relief_0195,Maroondah Citzens Advice Bureau Inc,Emergency relief provider operated by Community Information and Support Victoria Inc,financial,214 Mt Dandenong Road Croydon VIC 3136,Croydon,VIC,3136,-37.8011079,145.2804319,,,http://www.cisvic.org.au,,,Free,fed_emergency_relief,Emergency Relief Provider Outlets,Department of Social Services,federal,CC-BY-3.0-AU,https://data.gov.au/data/dataset/d667403f-2016-463f-bb0a-3087ae67c57f,2026-04-19,complete
fed_emergency_relief_0196,Lilydate Assist Incorporated,Emergency relief provider operated by Community Information and Support Victoria Inc,financial,214 Main Street Lilydale VIC 3140,Lilydale,VIC,3140,-37.7580381,145.3505792,,,http://www.cisvic.org.au,,,Free,fed_emergency_relief,Emergency Relief Provider Outlets,Department of Social Services,federal,CC-BY-3.0-AU,https://data.gov.au/data/dataset/d667403f-2016-463f-bb0a-3087ae67c57f,2026-04-19,complete
fed_emergency_relief_0197,Prahran Citizens Advice Bureua,Emergency relief provider operated by Community Information and Support Victoria Inc,financial,Prahran Market 163-185 Commercial Rd SOUTH YARRA VIC 3141,South Yarra,VIC,3141,-37.8464615,144.9922005,,,http://www.cisvic.org.au,,,Free,fed_emergency_relief,Emergency Relief Provider Outlets,Department of Social Services,federal,CC-BY-3.0-AU,https://data.gov.au/data/dataset/d667403f-2016-463f-bb0a-3087ae67c57f,2026-04-19,complete
fed_emergency_relief_0198,Monash Waverley Community Information & Support,Emergency relief provider operated by Community Information and Support Victoria Inc,financial,6 Holskamp Street MT WAVERLEY VIC 3149,Mt Waverley,VIC,3149,-37.873796,145.127102,,,http://www.cisvic.org.au,,,Free,fed_emergency_relief,Emergency Relief Provider Outlets,Department of Social Services,federal,CC-BY-3.0-AU,https://data.gov.au/data/dataset/d667403f-2016-463f-bb0a-3087ae67c57f,2026-04-19,complete
fed_emergency_relief_0199,UnitingCare East BurwoodCentre,Emergency relief provider operated by Community Information and Support Victoria Inc,financial,220 Burwood Highway Burwood East VIC 3151,Burwood East,VIC,3151,-37.8530072,145.1525317,,,http://www.cisvic.org.au,,,Free,fed_emergency_relief,Emergency Relief Provider Outlets,Department of Social Services,federal,CC-BY-3.0-AU,https://data.gov.au/data/dataset/d667403f-2016-463f-bb0a-3087ae67c57f,2026-04-19,complete
fed_emergency_relief_0200,Knox Infolink Inc,Emergency relief provider operated by Community Information and Support Victoria Inc,financial,135 Boronia Road BORONIA VIC 3155,Boronia,VIC,3155,-37.8622671,145.2843561,,,http://www.cisvic.org.au,,,Free,fed_emergency_relief,Emergency Relief Provider Outlets,Department of Social Services,federal,CC-BY-3.0-AU,https://data.gov.au/data/dataset/d667403f-2016-463f-bb0a-3087ae67c57f,2026-04-19,complete
fed_emergency_relief_0201,Community Information Glen Eira,Emergency relief provider operated by Community Information and Support Victoria Inc,financial,1134 Glenhuntly Road GLENHUNTLY VIC 3163,Glenhuntly,VIC,3163,-37.889486,145.041351,,,http://www.cisvic.org.au,,,Free,fed_emergency_relief,Emergency Relief Provider Outlets,Department of Social Services,federal,CC-BY-3.0-AU,https://data.gov.au/data/dataset/d667403f-2016-463f-bb0a-3087ae67c57f,2026-04-19,complete
fed_emergency_relief_0202,Monash Oakleigh Community Support & Info Service,Emergency relief provider operated by Community Information and Support Victoria Inc,financial,25 Downing Street Oakleigh VIC 3166,Oakleigh,VIC,3166,-37.900987,145.093568,,,http://www.cisvic.org.au,,,Free,fed_emergency_relief,Emergency Relief Provider Outlets,Department of Social Services,federal,CC-BY-3.0-AU,https://data.gov.au/data/dataset/d667403f-2016-463f-bb0a-3087ae67c57f,2026-04-19,complete
fed_emergency_relief_0203,Springvale Community Aid & Advice Bureau,Emergency relief provider operated by Community Information and Support Victoria Inc,financial,5 Osborne Ave Springvale VIC 3171,Springvale,VIC,3171,-37.9466695,145.1489579,,,http://www.cisvic.org.au,,,Free,fed_emergency_relief,Emergency Relief Provider Outlets,Department of Social Services,federal,CC-BY-3.0-AU,https://data.gov.au/data/dataset/d667403f-2016-463f-bb0a-3087ae67c57f,2026-04-19,complete
fed_emergency_relief_0204,Dandenong Community Advisory Bureau,Emergency relief provider operated by Community Information and Support Victoria Inc,financial,186 Foster Street East DANDENONG VIC 3175,Dandenong,VIC,3175,-37.9871621,145.2208796,,,http://www.cisvic.org.au,,,Free,fed_emergency_relief,Emergency Relief Provider Outlets,Department of Social Services,federal,CC-BY-3.0-AU,https://data.gov.au/data/dataset/d667403f-2016-463f-bb0a-3087ae67c57f,2026-04-19,complete
fed_emergency_relief_0205,Port Phillip Community Group,Emergency relief provider operated by Community Information and Support Victoria Inc,financial,161 Chapel Street St Kilda VIC 3182,St Kilda,VIC,3182,-37.868562,144.9901241,,,http://www.cisvic.org.au,,,Free,fed_emergency_relief,Emergency Relief Provider Outlets,Department of Social Services,federal,CC-BY-3.0-AU,https://data.gov.au/data/dataset/d667403f-2016-463f-bb0a-3087ae67c57f,2026-04-19,complete
fed_emergency_relief_0206,Bayside Community Information & Support Services,Emergency relief provider operated by Community Information and Support Victoria Inc,financial,12 Katoomba Street HAMPTON VIC 3188,Hampton,VIC,3188,-37.934974,145.034649,,,http://www.cisvic.org.au,,,Free,fed_emergency_relief,Emergency Relief Provider Outlets,Department of Social Services,federal,CC-BY-3.0-AU,https://data.gov.au/data/dataset/d667403f-2016-463f-bb0a-3087ae67c57f,2026-04-19,complete
fed_emergency_relief_0207,Mentone Community Assistance &Information Bureau,Emergency relief provider operated by Community Information and Support Victoria Inc,financial,36 Florence Street Mentone VIC 3194,Mentone,VIC,3194,-37.9829065,145.0639774,,,http://www.cisvic.org.au,,,Free,fed_emergency_relief,Emergency Relief Provider Outlets,Department of Social Services,federal,CC-BY-3.0-AU,https://data.gov.au/data/dataset/d667403f-2016-463f-bb0a-3087ae67c57f,2026-04-19,complete
fed_emergency_relief_0208,Chelsea Community Information and Support Service,Emergency relief provider operated by Community Information and Support Victoria Inc,financial,1 Chelsea Road CHELSEA VIC 3196,Chelsea,VIC,3196,-38.0510963,145.1170949,,,http://www.cisvic.org.au,,,Free,fed_emergency_relief,Emergency Relief Provider Outlets,Department of Social Services,federal,CC-BY-3.0-AU,https://data.gov.au/data/dataset/d667403f-2016-463f-bb0a-3087ae67c57f,2026-04-19,complete
fed_emergency_relief_0209,Bendigo Family and Fainancial Services,Emergency relief provider operated by Community Information and Support Victoria Inc,financial,8 Myers Street BENDIGO VIC 3554,Bendigo,VIC,3554,-36.762017,144.282953,,,http://www.cisvic.org.au,,,Free,fed_emergency_relief,Emergency Relief Provider Outlets,Department of Social Services,federal,CC-BY-3.0-AU,https://data.gov.au/data/dataset/d667403f-2016-463f-bb0a-3087ae67c57f,2026-04-19,complete
fed_emergency_relief_0210,Goulburn Valley Community Care & Emergency Relief,Emergency relief provider operated by Community Information and Support Victoria Inc,financial,2B Campbell Street SHEPPARTON VIC 3630,Shepparton,VIC,3630,-36.3838864,145.4135351,,,http://www.cisvic.org.au,,,Free,fed_emergency_relief,Emergency Relief Provider Outlets,Department of Social Services,federal,CC-BY-3.0-AU,https://data.gov.au/data/dataset/d667403f-2016-463f-bb0a-3087ae67c57f,2026-04-19,complete
fed_emergency_relief_0211,Cobram Citizens Advice Bureau,Emergency relief provider operated by Community Information and Support Victoria Inc,financial,63 Punt Road Cobram VIC 3644,Cobram,VIC,3644,-35.9191421,145.6503707,,,http://www.cisvic.org.au,,,Free,fed_emergency_relief,Emergency Relief Provider Outlets,Department of Social Services,federal,CC-BY-3.0-AU,https://data.gov.au/data/dataset/d667403f-2016-463f-bb0a-3087ae67c57f,2026-04-19,complete
fed_emergency_relief_0212,Western Port Community Support Inc,Emergency relief provider operated by Community Information and Support Victoria Inc,financial,185 High Street Hastings VIC 3915,Hastings,VIC,3915,-38.3079938,145.179153,,,http://www.cisvic.org.au,,,Free,fed_emergency_relief,Emergency Relief Provider Outlets,Department of Social Services,federal,CC-BY-3.0-AU,https://data.gov.au/data/dataset/d667403f-2016-463f-bb0a-3087ae67c57f,2026-04-19,complete
fed_emergency_relief_0213,Morninton Community Information & Support Centre,Emergency relief provider operated by Community Information and Support Victoria Inc,financial,320 Main Street Mornington VIC 3931,Mornington,VIC,3931,-38.2252108,145.0423184,,,http://www.cisvic.org.au,,,Free,fed_emergency_relief,Emergency Relief Provider Outlets,Department of Social Services,federal,CC-BY-3.0-AU,https://data.gov.au/data/dataset/d667403f-2016-463f-bb0a-3087ae67c57f,2026-04-19,complete
fed_emergency_relief_0214,Southern Peninsula Community Support & Info Centre,Emergency relief provider operated by Community Information and Support Victoria Inc,financial,878 Point Nepean Road ROSEBUD VIC 3939,Rosebud,VIC,3939,-38.354307,144.908331,,,http://www.cisvic.org.au,,,Free,fed_emergency_relief,Emergency Relief Provider Outlets,Department of Social Services,federal,CC-BY-3.0-AU,https://data.gov.au/data/dataset/d667403f-2016-463f-bb0a-3087ae67c57f,2026-04-19,complete
fed_emergency_relief_0215,CST Community Hub,Emergency relief provider operated by Community Services Tablelands Inc,financial,38 Mabel St ATHERTON QLD 4883,Atherton,QLD,4883,-17.2665297,145.4774063,,,http://www.cst.org.au,,,Free,fed_emergency_relief,Emergency Relief Provider Outlets,Department of Social Services,federal,CC-BY-3.0-AU,https://data.gov.au/data/dataset/d667403f-2016-463f-bb0a-3087ae67c57f,2026-04-19,complete
fed_emergency_relief_0216,COMMUNITY SUPPORT FRANKSTON INC.,Emergency relief provider operated by Community Support Frankston,financial,35 BEACH STREET FRANKSTON VIC 3199,Frankston,VIC,3199,-38.1415395,145.1279539,,,http://www.frankston.net,,,Free,fed_emergency_relief,Emergency Relief Provider Outlets,Department of Social Services,federal,CC-BY-3.0-AU,https://data.gov.au/data/dataset/d667403f-2016-463f-bb0a-3087ae67c57f,2026-04-19,complete
fed_emergency_relief_0217,Companion House on site,Emergency relief provider operated by Companion House Assisting Survivors of Torture and Trauma Incorporated,financial,41 Templeton St Cook COOK ACT 2614,Cook,ACT,2614,-35.2581538,149.0604498,,,http://www.companionhouse.org.au,,,Free,fed_emergency_relief,Emergency Relief Provider Outlets,Department of Social Services,federal,CC-BY-3.0-AU,https://data.gov.au/data/dataset/d667403f-2016-463f-bb0a-3087ae67c57f,2026-04-19,complete
fed_emergency_relief_0218,Creating Links (N.S.W.) Ltd,Emergency relief provider operated by Creating Links NSW Ltd,financial,"G/F, 58 Kitchener Parade BANKSTOWN NSW 2200",Bankstown,NSW,2200,-33.9145458,151.0327917,,,http://www.creatinglinks.org.au,,,Free,fed_emergency_relief,Emergency Relief Provider Outlets,Department of Social Services,federal,CC-BY-3.0-AU,https://data.gov.au/data/dataset/d667403f-2016-463f-bb0a-3087ae67c57f,2026-04-19,complete
fed_emergency_relief_0219,Withheld,Emergency relief provider operated by Crisis Accommodation Gove (Inc),financial,Withheld,Withheld,,Withheld,-13.099593,135.813649,,,,,,Free,fed_emergency_relief,Emergency Relief Provider Outlets,Department of Social Services,federal,CC-BY-3.0-AU,https://data.gov.au/data/dataset/d667403f-2016-463f-bb0a-3087ae67c57f,2026-04-19,partial
fed_emergency_relief_0220,Viney Morgan AMS,Emergency relief provider operated by Cummeragunja Housing & Development Aboriginal Corp,financial,10 Tongala Ave Cummeragunja Via MOAMA NSW 2731,Moama,NSW,2731,-25.945362,134.387287,,,http://www.vaccho.org.au/om/our-membership/associate-members/chdac,,,Free,fed_emergency_relief,Emergency Relief Provider Outlets,Department of Social Services,federal,CC-BY-3.0-AU,https://data.gov.au/data/dataset/d667403f-2016-463f-bb0a-3087ae67c57f,2026-04-19,complete
fed_emergency_relief_0221,Head office,Emergency relief provider operated by Dandenong Ranges Emergency Relief Service Inc.,financial,1632 Burwood Highway BELGRAVE VIC 3160,Belgrave,VIC,3160,-25.945362,134.387287,,,http://www.drers.org.au,,,Free,fed_emergency_relief,Emergency Relief Provider Outlets,Department of Social Services,federal,CC-BY-3.0-AU,https://data.gov.au/data/dataset/d667403f-2016-463f-bb0a-3087ae67c57f,2026-04-19,complete
